,Datum,UurgroepOmschrijving (van aankomst),AankomstHalteCode,AankomstHalteNaam,AankomstLat,AankomstLon,AantalReizen
4,2022-10-17,00:00 - 00:59,,Overig,,,6.0
5,2022-10-17,00:00 - 00:59,[[ Onb,[[ Onbekend ]],0.0,0.0,10.0
6,2022-10-17,01:00 - 01:59,,Overig,,,71.0
7,2022-10-17,01:00 - 01:59,[[ Onb,[[ Onbekend ]],0.0,0.0,28.0
8,2022-10-17,02:00 - 02:59,,Overig,,,75.0
9,2022-10-17,02:00 - 02:59,[[ Onb,[[ Onbekend ]],0.0,0.0,21.0
10,2022-10-17,03:00 - 03:59,,Overig,,,74.0
11,2022-10-17,04:00 - 04:59,,Overig,,,55.0
12,2022-10-17,04:00 - 04:59,[[ Onb,[[ Onbekend ]],0.0,0.0,18.0
13,2022-10-17,04:00 - 04:59,00562,Station Bijlmer ArenA,4.94736012,52.31138289,9.0
14,2022-10-17,04:00 - 04:59,CS,Centraal Station,4.9007815,52.37749421,9.0
15,2022-10-17,05:00 - 05:59,,Overig,,,225.0
16,2022-10-17,05:00 - 05:59,[[ Onb,[[ Onbekend ]],0.0,0.0,51.0
17,2022-10-17,05:00 - 05:59,00562,Station Bijlmer ArenA,4.94736012,52.31138289,11.0
18,2022-10-17,05:00 - 05:59,02361,Station Sloterdijk,4.83931858,52.3883346,11.0
19,2022-10-17,05:00 - 05:59,02365,Station Sloterdijk,4.83873236,52.38822404,11.0
20,2022-10-17,05:00 - 05:59,04265,Schiphol Airport/Plaza,4.75941951,52.309591,34.0
21,2022-10-17,05:00 - 05:59,04267,Schiphol Airport/Plaza,4.76111192,52.30915956,109.0
22,2022-10-17,05:00 - 05:59,04300,Knooppunt Schiphol Nrd,4.79313402,52.32255488,11.0
23,2022-10-17,05:00 - 05:59,04379,Knooppunt Schiphol Nrd,4.79342507,52.32272711,40.0
24,2022-10-17,05:00 - 05:59,05011,Centraal Station,4.89921803,52.37810793,11.0
25,2022-10-17,05:00 - 05:59,05022,Centraal Station,4.90104337,52.37771998,23.0
26,2022-10-17,05:00 - 05:59,05032,Dam,4.8954936,52.37492885,11.0
27,2022-10-17,05:00 - 05:59,05100,Centraal Station,4.90028404,52.37999973,12.0
28,2022-10-17,05:00 - 05:59,CS,Centraal Station,4.9007815,52.37749421,91.0
29,2022-10-17,05:00 - 05:59,RKN,Rokin,4.89229651,52.36928023,12.0
30,2022-10-17,05:00 - 05:59,WTC,Station Zuid,4.87509853,52.33908015,55.0
31,2022-10-17,06:00 - 06:59,,Overig,,,1382.0
32,2022-10-17,06:00 - 06:59,[[ Onb,[[ Onbekend ]],0.0,0.0,183.0
33,2022-10-17,06:00 - 06:59,00005,Muiderpoortstation,4.93280219,52.36121887,9.0
34,2022-10-17,06:00 - 06:59,00023,Beukenplein,4.91809259,52.35701816,10.0
35,2022-10-17,06:00 - 06:59,00205,Station Holendrecht,4.95865657,52.29716971,11.0
36,2022-10-17,06:00 - 06:59,00432,Diemerbrug,4.96142958,52.33824484,9.0
37,2022-10-17,06:00 - 06:59,00453,Diemen Sniep,4.96964866,52.33644962,24.0
38,2022-10-17,06:00 - 06:59,00454,Diemen Sniep,4.96958473,52.33700663,14.0
39,2022-10-17,06:00 - 06:59,00491,Science Park Aer,4.95218495,52.35478458,10.0
40,2022-10-17,06:00 - 06:59,00560,Station Bijlmer ArenA,4.94747867,52.3112575,19.0
41,2022-10-17,06:00 - 06:59,00561,Station Bijlmer ArenA,4.94741931,52.31132918,54.0
42,2022-10-17,06:00 - 06:59,00562,Station Bijlmer ArenA,4.94736012,52.31138289,51.0
43,2022-10-17,06:00 - 06:59,02012,Koivistokade,4.87515397,52.3978781,22.0
44,2022-10-17,06:00 - 06:59,02066,La Guardiaweg,4.84008244,52.39190625,14.0
45,2022-10-17,06:00 - 06:59,02099,Zaanstraat,4.86990824,52.39287613,11.0
46,2022-10-17,06:00 - 06:59,02114,Haarlemmerplein,4.88341252,52.38484542,9.0
47,2022-10-17,06:00 - 06:59,02311,Seineweg,4.81857317,52.38632242,22.0
48,2022-10-17,06:00 - 06:59,02361,Station Sloterdijk,4.83931858,52.3883346,41.0
49,2022-10-17,06:00 - 06:59,02365,Station Sloterdijk,4.83873236,52.38822404,37.0
50,2022-10-17,06:00 - 06:59,02366,Station Sloterdijk,4.83873347,52.38813416,20.0
51,2022-10-17,06:00 - 06:59,02368,Station Sloterdijk,4.83877999,52.38793665,12.0
52,2022-10-17,06:00 - 06:59,02378,Station Sloterdijk,4.83809796,52.38844579,17.0
53,2022-10-17,06:00 - 06:59,03061,Bos en Lommerplein,4.8452353,52.37778328,11.0
54,2022-10-17,06:00 - 06:59,03087,Plein '40 - '45,4.82063128,52.38159575,11.0
55,2022-10-17,06:00 - 06:59,03129,Plein '40 - '45,4.82112672,52.38075328,10.0
56,2022-10-17,06:00 - 06:59,04112,Johan Huizingalaan,4.82742878,52.34923618,11.0
57,2022-10-17,06:00 - 06:59,04195,Station Lelylaan,4.83460082,52.35788018,27.0
58,2022-10-17,06:00 - 06:59,04196,Station Lelylaan,4.83382251,52.35790351,20.0
59,2022-10-17,06:00 - 06:59,04265,Schiphol Airport/Plaza,4.75941951,52.309591,38.0
60,2022-10-17,06:00 - 06:59,04267,Schiphol Airport/Plaza,4.76111192,52.30915956,30.0
61,2022-10-17,06:00 - 06:59,04379,Knooppunt Schiphol Nrd,4.79342507,52.32272711,29.0
62,2022-10-17,06:00 - 06:59,05011,Centraal Station,4.89921803,52.37810793,70.0
63,2022-10-17,06:00 - 06:59,05022,Centraal Station,4.90104337,52.37771998,108.0
64,2022-10-17,06:00 - 06:59,05031,Dam,4.89348394,52.37341055,29.0
65,2022-10-17,06:00 - 06:59,05032,Dam,4.8954936,52.37492885,17.0
66,2022-10-17,06:00 - 06:59,05047,Rembrandtplein,4.89702882,52.36623511,9.0
67,2022-10-17,06:00 - 06:59,05058,Paleisstraat,4.89063746,52.37188871,23.0
68,2022-10-17,06:00 - 06:59,05074,Westermarkt,4.8835495,52.37407874,11.0
69,2022-10-17,06:00 - 06:59,05097,Centraal Station,4.90046323,52.37973084,67.0
70,2022-10-17,06:00 - 06:59,05101,Centraal Station,4.90081491,52.37980418,9.0
71,2022-10-17,06:00 - 06:59,05103,Centraal Station,4.9009941,52.37953529,44.0
72,2022-10-17,06:00 - 06:59,05105,Centraal Station,4.90187664,52.37941308,10.0
73,2022-10-17,06:00 - 06:59,05139,Paleisstraat,4.89124483,52.37272712,19.0
74,2022-10-17,06:00 - 06:59,05154,Marnixstraat,4.87536375,52.37207533,12.0
75,2022-10-17,06:00 - 06:59,06027,Elandsgracht,4.87855189,52.36808953,9.0
76,2022-10-17,06:00 - 06:59,06046,1e Con. Huygensstraat,4.87487082,52.36262709,9.0
77,2022-10-17,06:00 - 06:59,06054,Rijksmuseum,4.88691223,52.36106979,15.0
78,2022-10-17,06:00 - 06:59,06061,Leidseplein,4.88339576,52.36305015,15.0
79,2022-10-17,06:00 - 06:59,06063,Leidseplein,4.88064547,52.36476406,18.0
80,2022-10-17,06:00 - 06:59,06089,Leidseplein,4.88085541,52.36309324,21.0
81,2022-10-17,06:00 - 06:59,07001,Concertgebouw,4.87950215,52.35690388,25.0
82,2022-10-17,06:00 - 06:59,07016,Roelof Hartplein,4.88286688,52.35274795,10.0
83,2022-10-17,06:00 - 06:59,07266,Station Zuid,4.87252654,52.34070477,10.0
84,2022-10-17,06:00 - 06:59,07269,Station Zuid,4.8732882,52.34082492,13.0
85,2022-10-17,06:00 - 06:59,07270,Parnassusweg,4.86874218,52.33806382,11.0
86,2022-10-17,06:00 - 06:59,07294,Station Zuid,4.87377387,52.3407012,11.0
87,2022-10-17,06:00 - 06:59,07303,VU medisch centrum,4.86097062,52.33515342,28.0
88,2022-10-17,06:00 - 06:59,07325,Museumplein,4.88046549,52.3586696,10.0
89,2022-10-17,06:00 - 06:59,07445,Amstelveen Stadshart,4.86751502,52.30124433,9.0
90,2022-10-17,06:00 - 06:59,08054,Weesperplein,4.90941338,52.36145933,22.0
91,2022-10-17,06:00 - 06:59,08057,Frederiksplein,4.90024241,52.3597143,19.0
92,2022-10-17,06:00 - 06:59,08073,Vijzelgracht,4.89227386,52.35946554,9.0
93,2022-10-17,06:00 - 06:59,08235,Muziekgeb. Bimhuis,4.9129002,52.37723779,10.0
94,2022-10-17,06:00 - 06:59,08238,Rietlandpark,4.93350159,52.37322013,9.0
95,2022-10-17,06:00 - 06:59,08239,Rietlandpark,4.93413567,52.37296191,11.0
96,2022-10-17,06:00 - 06:59,08259,1e Leeghwaterstraat,4.93004964,52.37047459,12.0
97,2022-10-17,06:00 - 06:59,09016,Amstelstation,4.91953925,52.34649925,9.0
98,2022-10-17,06:00 - 06:59,ASA,Amstelstation,4.91751426,52.34647326,148.0
99,2022-10-17,06:00 - 06:59,ASW,Amstelveenseweg,4.85798324,52.33836671,118.0
100,2022-10-17,06:00 - 06:59,BLW,Bullewijk,4.95233581,52.30642205,33.0
101,2022-10-17,06:00 - 06:59,BMR,Station Bijlmer ArenA,4.94713474,52.3119303,206.0
102,2022-10-17,06:00 - 06:59,CLL,Station Lelylaan,4.83426589,52.35766291,44.0
103,2022-10-17,06:00 - 06:59,CS,Centraal Station,4.9007815,52.37749421,565.0
104,2022-10-17,06:00 - 06:59,DMZ,Station Diemen-Zuid,4.95713273,52.33042795,32.0
105,2022-10-17,06:00 - 06:59,DPP,De Pijp,4.89101069,52.35296212,41.0
106,2022-10-17,06:00 - 06:59,DVD,Station Duivendrecht,4.93678429,52.3232519,53.0
107,2022-10-17,06:00 - 06:59,EPP,Europaplein,4.8913843,52.34185482,36.0
108,2022-10-17,06:00 - 06:59,GN,Gein,4.98952268,52.29627089,12.0
109,2022-10-17,06:00 - 06:59,GZH,Station Ganzenhoef,4.97323379,52.32331315,13.0
110,2022-10-17,06:00 - 06:59,HDS,Heemstedestraat,4.83421208,52.3525576,13.0
111,2022-10-17,06:00 - 06:59,HLD,Station Holendrecht,4.96021904,52.29780451,115.0
112,2022-10-17,06:00 - 06:59,HVW,Henk Sneevlietweg,4.83439318,52.34626699,42.0
113,2022-10-17,06:00 - 06:59,ITW,Isolatorweg,4.85013475,52.39523277,26.0
114,2022-10-17,06:00 - 06:59,JLS,Jan v.Galenstraat,4.83492461,52.37196551,61.0
115,2022-10-17,06:00 - 06:59,MDW,Van der Madeweg,4.93048657,52.32945629,37.0
116,2022-10-17,06:00 - 06:59,ND,Noord,4.93123182,52.40117202,56.0
117,2022-10-17,06:00 - 06:59,NDP,Noorderpark,4.91789115,52.38855518,31.0
118,2022-10-17,06:00 - 06:59,NMT,Nieuwmarkt,4.90123885,52.37194169,36.0
119,2022-10-17,06:00 - 06:59,OAS,Overamstel,4.91815361,52.33179879,53.0
120,2022-10-17,06:00 - 06:59,RAI,Station RAI,4.88982004,52.33739931,83.0
121,2022-10-17,06:00 - 06:59,RGB,Reigersbos,4.97473728,52.29566301,17.0
122,2022-10-17,06:00 - 06:59,RKN,Rokin,4.89229651,52.36928023,162.0
123,2022-10-17,06:00 - 06:59,SLW,Spaklerweg,4.9208564,52.3398625,47.0
124,2022-10-17,06:00 - 06:59,STD,Station Sloterdijk,4.83878389,52.38880848,163.0
125,2022-10-17,06:00 - 06:59,VSW,Verrijn Stuartweg,4.96693669,52.32844093,37.0
126,2022-10-17,06:00 - 06:59,VZG,Vijzelgracht,4.8907287,52.35980061,63.0
127,2022-10-17,06:00 - 06:59,WBS,Wibautstraat,4.91202993,52.35428867,72.0
128,2022-10-17,06:00 - 06:59,WLP,Waterlooplein,4.90298171,52.36697862,87.0
129,2022-10-17,06:00 - 06:59,WPP,Weesperplein,4.90787469,52.36120146,80.0
130,2022-10-17,06:00 - 06:59,WTC,Station Zuid,4.87509853,52.33908015,435.0
131,2022-10-17,07:00 - 07:59,,Overig,,,2078.0
132,2022-10-17,07:00 - 07:59,[[ Onb,[[ Onbekend ]],0.0,0.0,359.0
133,2022-10-17,07:00 - 07:59,00005,Muiderpoortstation,4.93280219,52.36121887,21.0
134,2022-10-17,07:00 - 07:59,00018,Diemerknoop,5.00286153,52.33537576,9.0
135,2022-10-17,07:00 - 07:59,00020,Beukenweg,4.91674979,52.35906203,27.0
136,2022-10-17,07:00 - 07:59,00021,Beukenweg,4.91721293,52.35829991,52.0
137,2022-10-17,07:00 - 07:59,00023,Beukenplein,4.91809259,52.35701816,27.0
138,2022-10-17,07:00 - 07:59,00029,Oostpoort,4.92719316,52.35707185,10.0
139,2022-10-17,07:00 - 07:59,00046,Fizeaustraat,4.92463808,52.34589015,10.0
140,2022-10-17,07:00 - 07:59,00070,Kruislaan,4.9399391,52.34789929,9.0
141,2022-10-17,07:00 - 07:59,00205,Station Holendrecht,4.95865657,52.29716971,24.0
142,2022-10-17,07:00 - 07:59,00453,Diemen Sniep,4.96964866,52.33644962,26.0
143,2022-10-17,07:00 - 07:59,00454,Diemen Sniep,4.96958473,52.33700663,17.0
144,2022-10-17,07:00 - 07:59,00491,Science Park Aer,4.95218495,52.35478458,11.0
145,2022-10-17,07:00 - 07:59,00515,Station Duivendrecht,4.93599526,52.3229523,11.0
146,2022-10-17,07:00 - 07:59,00518,Foppingadreef,4.94967889,52.31268573,15.0
147,2022-10-17,07:00 - 07:59,00554,Science Park,4.95088162,52.3544742,16.0
148,2022-10-17,07:00 - 07:59,00560,Station Bijlmer ArenA,4.94747867,52.3112575,54.0
149,2022-10-17,07:00 - 07:59,00561,Station Bijlmer ArenA,4.94741931,52.31132918,57.0
150,2022-10-17,07:00 - 07:59,00562,Station Bijlmer ArenA,4.94736012,52.31138289,65.0
151,2022-10-17,07:00 - 07:59,00568,Station Bijlmer ArenA,4.94762664,52.31112323,21.0
152,2022-10-17,07:00 - 07:59,00651,Casparuslaan,5.03531862,52.30911571,9.0
153,2022-10-17,07:00 - 07:59,00665,Station Weesp,5.04383463,52.31145059,10.0
154,2022-10-17,07:00 - 07:59,00999,Vinkenbrug,4.97831599,52.33370267,10.0
155,2022-10-17,07:00 - 07:59,01365,Atat?rk,4.89794256,52.40319625,16.0
156,2022-10-17,07:00 - 07:59,01402,Floraweg,4.90614362,52.39899665,10.0
157,2022-10-17,07:00 - 07:59,02012,Koivistokade,4.87515397,52.3978781,35.0
158,2022-10-17,07:00 - 07:59,02020,Haparandaweg,4.87628003,52.39451258,12.0
159,2022-10-17,07:00 - 07:59,02064,Kabelweg,4.84827817,52.39205168,11.0
160,2022-10-17,07:00 - 07:59,02066,La Guardiaweg,4.84008244,52.39190625,10.0
161,2022-10-17,07:00 - 07:59,02094,Zaanstraat,4.87012818,52.39291304,14.0
162,2022-10-17,07:00 - 07:59,02099,Zaanstraat,4.86990824,52.39287613,10.0
163,2022-10-17,07:00 - 07:59,02103,Spaarndammerstraat,4.87754073,52.39219919,13.0
164,2022-10-17,07:00 - 07:59,02106,Assendelftstraat,4.8794384,52.38941217,13.0
165,2022-10-17,07:00 - 07:59,02114,Haarlemmerplein,4.88341252,52.38484542,19.0
166,2022-10-17,07:00 - 07:59,02128,G. v.Ledenberchstraat,4.87062828,52.37520945,10.0
167,2022-10-17,07:00 - 07:59,02156,Willem de Zwijgerlaan,4.86425293,52.37039101,15.0
168,2022-10-17,07:00 - 07:59,02158,Adm. de Ruijterweg,4.86096777,52.3712932,12.0
169,2022-10-17,07:00 - 07:59,02201,Abberdaan,4.78087947,52.39180671,16.0
170,2022-10-17,07:00 - 07:59,02222,Jan van Galenstraat,4.85874763,52.37399761,11.0
171,2022-10-17,07:00 - 07:59,02260,Contactweg,4.85432952,52.39215995,9.0
172,2022-10-17,07:00 - 07:59,02311,Seineweg,4.81857317,52.38632242,20.0
173,2022-10-17,07:00 - 07:59,02321,Van Hallstraat,4.86864429,52.38538386,11.0
174,2022-10-17,07:00 - 07:59,02330,Maltaweg,4.80388392,52.40419947,25.0
175,2022-10-17,07:00 - 07:59,02360,Station Sloterdijk,4.83827278,52.38856344,10.0
176,2022-10-17,07:00 - 07:59,02361,Station Sloterdijk,4.83931858,52.3883346,72.0
177,2022-10-17,07:00 - 07:59,02365,Station Sloterdijk,4.83873236,52.38822404,38.0
178,2022-10-17,07:00 - 07:59,02366,Station Sloterdijk,4.83873347,52.38813416,11.0
179,2022-10-17,07:00 - 07:59,02367,Station Sloterdijk,4.83876429,52.38801747,30.0
180,2022-10-17,07:00 - 07:59,02368,Station Sloterdijk,4.83877999,52.38793665,20.0
181,2022-10-17,07:00 - 07:59,02378,Station Sloterdijk,4.83809796,52.38844579,59.0
182,2022-10-17,07:00 - 07:59,03060,Bos en Lommerplein,4.84718407,52.37815169,11.0
183,2022-10-17,07:00 - 07:59,03061,Bos en Lommerplein,4.8452353,52.37778328,16.0
184,2022-10-17,07:00 - 07:59,03076,Jan Tooropstraat,4.83810313,52.37142305,14.0
185,2022-10-17,07:00 - 07:59,03077,Jan Tooropstraat,4.83817288,52.37171997,10.0
186,2022-10-17,07:00 - 07:59,03087,Plein '40 - '45,4.82063128,52.38159575,19.0
187,2022-10-17,07:00 - 07:59,03135,Ookmeerweg,4.80431836,52.36558127,10.0
188,2022-10-17,07:00 - 07:59,03145,J. Cabeliaustraat,4.80409638,52.38246819,10.0
189,2022-10-17,07:00 - 07:59,03167,Bos en Lommerplein,4.84650668,52.37709704,11.0
190,2022-10-17,07:00 - 07:59,04050,Meer en Vaart,4.80994403,52.3563694,11.0
191,2022-10-17,07:00 - 07:59,04061,Derkinderenstraat,4.84014895,52.3579419,9.0
192,2022-10-17,07:00 - 07:59,04088,Louwesweg,4.8243642,52.34669608,23.0
193,2022-10-17,07:00 - 07:59,04112,Johan Huizingalaan,4.82742878,52.34923618,46.0
194,2022-10-17,07:00 - 07:59,04195,Station Lelylaan,4.83460082,52.35788018,81.0
195,2022-10-17,07:00 - 07:59,04196,Station Lelylaan,4.83382251,52.35790351,114.0
196,2022-10-17,07:00 - 07:59,04265,Schiphol Airport/Plaza,4.75941951,52.309591,38.0
197,2022-10-17,07:00 - 07:59,04267,Schiphol Airport/Plaza,4.76111192,52.30915956,23.0
198,2022-10-17,07:00 - 07:59,04379,Knooppunt Schiphol Nrd,4.79342507,52.32272711,46.0
199,2022-10-17,07:00 - 07:59,04402,Matterhorn,4.77477998,52.35372103,14.0
200,2022-10-17,07:00 - 07:59,04413,Louis Davidsstraat,4.80850916,52.35383682,9.0
201,2022-10-17,07:00 - 07:59,05011,Centraal Station,4.89921803,52.37810793,156.0
202,2022-10-17,07:00 - 07:59,05022,Centraal Station,4.90104337,52.37771998,248.0
203,2022-10-17,07:00 - 07:59,05031,Dam,4.89348394,52.37341055,26.0
204,2022-10-17,07:00 - 07:59,05032,Dam,4.8954936,52.37492885,31.0
205,2022-10-17,07:00 - 07:59,05035,Rokin,4.89210433,52.36939627,13.0
206,2022-10-17,07:00 - 07:59,05036,Rokin,4.89230478,52.36985548,14.0
207,2022-10-17,07:00 - 07:59,05046,Rembrandtplein,4.89627976,52.36625897,10.0
208,2022-10-17,07:00 - 07:59,05047,Rembrandtplein,4.89702882,52.36623511,28.0
209,2022-10-17,07:00 - 07:59,05058,Paleisstraat,4.89063746,52.37188871,30.0
210,2022-10-17,07:00 - 07:59,05060,Koningsplein,4.88894752,52.36807981,11.0
211,2022-10-17,07:00 - 07:59,05063,Paleisstraat,4.89064591,52.37244599,18.0
212,2022-10-17,07:00 - 07:59,05064,Koningsplein,4.8894961,52.36760577,21.0
213,2022-10-17,07:00 - 07:59,05073,Westermarkt,4.88453426,52.37400204,17.0
214,2022-10-17,07:00 - 07:59,05074,Westermarkt,4.8835495,52.37407874,25.0
215,2022-10-17,07:00 - 07:59,05090,Westerdoksdijk,4.89331977,52.38551629,11.0
216,2022-10-17,07:00 - 07:59,05097,Centraal Station,4.90046323,52.37973084,157.0
217,2022-10-17,07:00 - 07:59,05101,Centraal Station,4.90081491,52.37980418,18.0
218,2022-10-17,07:00 - 07:59,05103,Centraal Station,4.9009941,52.37953529,132.0
219,2022-10-17,07:00 - 07:59,05105,Centraal Station,4.90187664,52.37941308,27.0
220,2022-10-17,07:00 - 07:59,05139,Paleisstraat,4.89124483,52.37272712,21.0
221,2022-10-17,07:00 - 07:59,05154,Marnixstraat,4.87536375,52.37207533,11.0
222,2022-10-17,07:00 - 07:59,06001,Surinameplein,4.85252231,52.35807034,15.0
223,2022-10-17,07:00 - 07:59,06002,Surinameplein,4.85090753,52.35807202,13.0
224,2022-10-17,07:00 - 07:59,06023,Bilderdijkstraat,4.87254032,52.36736251,9.0
225,2022-10-17,07:00 - 07:59,06024,Kinkerstraat,4.87230885,52.36706491,11.0
226,2022-10-17,07:00 - 07:59,06027,Elandsgracht,4.87855189,52.36808953,27.0
227,2022-10-17,07:00 - 07:59,06028,Elandsgracht,4.87741694,52.36974738,11.0
228,2022-10-17,07:00 - 07:59,06030,Rozengracht,4.87590932,52.37187996,11.0
229,2022-10-17,07:00 - 07:59,06034,Bilderdijkstraat,4.87082347,52.37105798,11.0
230,2022-10-17,07:00 - 07:59,06037,Bilderdijkstraat,4.86985701,52.37082906,11.0
231,2022-10-17,07:00 - 07:59,06038,De Clercqstraat,4.87040279,52.37061574,9.0
232,2022-10-17,07:00 - 07:59,06043,Overtoom,4.87510145,52.36299659,9.0
233,2022-10-17,07:00 - 07:59,06045,1e Con. Huygensstraat,4.87399228,52.36242556,18.0
234,2022-10-17,07:00 - 07:59,06046,1e Con. Huygensstraat,4.87487082,52.36262709,18.0
235,2022-10-17,07:00 - 07:59,06048,J.P. Heijestraat,4.86585368,52.36037674,14.0
236,2022-10-17,07:00 - 07:59,06049,J.P. Heijestraat,4.86671778,52.36055131,16.0
237,2022-10-17,07:00 - 07:59,06053,Rijksmuseum,4.88762091,52.36071327,14.0
238,2022-10-17,07:00 - 07:59,06054,Rijksmuseum,4.88691223,52.36106979,16.0
239,2022-10-17,07:00 - 07:59,06061,Leidseplein,4.88339576,52.36305015,29.0
240,2022-10-17,07:00 - 07:59,06063,Leidseplein,4.88064547,52.36476406,23.0
241,2022-10-17,07:00 - 07:59,06074,Keizersgracht,4.88624128,52.36588437,13.0
242,2022-10-17,07:00 - 07:59,06081,Rhijnvis Feithstraat,4.86039355,52.35905833,9.0
243,2022-10-17,07:00 - 07:59,06082,Rhijnvis Feithstraat,4.85967683,52.35883943,14.0
244,2022-10-17,07:00 - 07:59,06089,Leidseplein,4.88085541,52.36309324,48.0
245,2022-10-17,07:00 - 07:59,06115,Postjesweg,4.85319014,52.3647872,11.0
246,2022-10-17,07:00 - 07:59,07000,Concertgebouw,4.87980116,52.35642881,13.0
247,2022-10-17,07:00 - 07:59,07001,Concertgebouw,4.87950215,52.35690388,52.0
248,2022-10-17,07:00 - 07:59,07016,Roelof Hartplein,4.88286688,52.35274795,11.0
249,2022-10-17,07:00 - 07:59,07035,Zeilstraat,4.85672894,52.35124059,17.0
250,2022-10-17,07:00 - 07:59,07049,Hoofddorpplein,4.84958188,52.35117239,12.0
251,2022-10-17,07:00 - 07:59,07050,Haarlemmermeerstation,4.85744749,52.34883508,16.0
252,2022-10-17,07:00 - 07:59,07066,Valeriusplein,4.86470709,52.35177939,16.0
253,2022-10-17,07:00 - 07:59,07070,Emmastraat,4.87013616,52.35317836,15.0
254,2022-10-17,07:00 - 07:59,07083,Gerrit v.d. Veenstraat,4.87735929,52.34921014,22.0
255,2022-10-17,07:00 - 07:59,07084,Gerrit v.d. Veenstraat,4.87720177,52.34886793,10.0
256,2022-10-17,07:00 - 07:59,07116,Haarlemmermeerstation,4.8576041,52.34924023,9.0
257,2022-10-17,07:00 - 07:59,07133,De Boelelaan,4.86754589,52.33496677,9.0
258,2022-10-17,07:00 - 07:59,07190,Station Zuid,4.87353629,52.34094284,17.0
259,2022-10-17,07:00 - 07:59,07266,Station Zuid,4.87252654,52.34070477,67.0
260,2022-10-17,07:00 - 07:59,07268,Station Zuid,4.87416869,52.34081975,15.0
261,2022-10-17,07:00 - 07:59,07269,Station Zuid,4.8732882,52.34082492,25.0
262,2022-10-17,07:00 - 07:59,07270,Parnassusweg,4.86874218,52.33806382,32.0
263,2022-10-17,07:00 - 07:59,07294,Station Zuid,4.87377387,52.3407012,26.0
264,2022-10-17,07:00 - 07:59,07303,VU medisch centrum,4.86097062,52.33515342,45.0
265,2022-10-17,07:00 - 07:59,07325,Museumplein,4.88046549,52.3586696,20.0
266,2022-10-17,07:00 - 07:59,07326,Museumplein,4.88178292,52.3589988,19.0
267,2022-10-17,07:00 - 07:59,07339,Nieuw Herlaer,4.88985946,52.32602094,14.0
268,2022-10-17,07:00 - 07:59,07350,VU medisch centrum,4.86006046,52.33519431,10.0
269,2022-10-17,07:00 - 07:59,07391,Kronenburg,4.87070592,52.31556694,9.0
270,2022-10-17,07:00 - 07:59,07419,Van Boshuizenstraat,4.86896941,52.32487971,12.0
271,2022-10-17,07:00 - 07:59,07445,Amstelveen Stadshart,4.86751502,52.30124433,11.0
272,2022-10-17,07:00 - 07:59,08011,C. van Eesterenlaan,4.93855181,52.37334722,9.0
273,2022-10-17,07:00 - 07:59,08027,Kadijksplein,4.91357159,52.37075136,11.0
274,2022-10-17,07:00 - 07:59,08034,P. Hendrikkade (uitstaphalte),4.90238928,52.37685369,20.0
275,2022-10-17,07:00 - 07:59,08050,Alexanderplein,4.91867098,52.36341072,10.0
276,2022-10-17,07:00 - 07:59,08054,Weesperplein,4.90941338,52.36145933,36.0
277,2022-10-17,07:00 - 07:59,08057,Frederiksplein,4.90024241,52.3597143,36.0
278,2022-10-17,07:00 - 07:59,08058,Veelaan,4.93961588,52.36830916,12.0
279,2022-10-17,07:00 - 07:59,08066,Frederiksplein,4.89751569,52.3593705,9.0
280,2022-10-17,07:00 - 07:59,08072,Vijzelgracht,4.89159781,52.35953462,20.0
281,2022-10-17,07:00 - 07:59,08073,Vijzelgracht,4.89227386,52.35946554,11.0
282,2022-10-17,07:00 - 07:59,08120,Insulindeweg,4.94763926,52.36469021,19.0
283,2022-10-17,07:00 - 07:59,08129,Molukkenstraat,4.93861286,52.36150167,9.0
284,2022-10-17,07:00 - 07:59,08176,K. 's-Gravesandestr.,4.91417416,52.36244014,15.0
285,2022-10-17,07:00 - 07:59,08235,Muziekgeb. Bimhuis,4.9129002,52.37723779,10.0
286,2022-10-17,07:00 - 07:59,08237,Kattenburgerstraat,4.92126795,52.37614755,12.0
287,2022-10-17,07:00 - 07:59,08238,Rietlandpark,4.93350159,52.37322013,15.0
288,2022-10-17,07:00 - 07:59,08239,Rietlandpark,4.93413567,52.37296191,44.0
289,2022-10-17,07:00 - 07:59,08241,Zuiderzeeweg,4.96185517,52.37193228,10.0
290,2022-10-17,07:00 - 07:59,08245,Steigereiland,4.98012952,52.36313467,30.0
291,2022-10-17,07:00 - 07:59,08247,Vennepluimstraat,4.99057242,52.35769662,12.0
292,2022-10-17,07:00 - 07:59,08257,1e Coehoornstraat,4.92618328,52.36808685,9.0
293,2022-10-17,07:00 - 07:59,08259,1e Leeghwaterstraat,4.93004964,52.37047459,27.0
294,2022-10-17,07:00 - 07:59,08262,IJburg,5.00486802,52.35112872,10.0
295,2022-10-17,07:00 - 07:59,09013,Amstelstation,4.91790223,52.34725673,20.0
296,2022-10-17,07:00 - 07:59,09015,Amstelstation,4.91940405,52.34679531,10.0
297,2022-10-17,07:00 - 07:59,09016,Amstelstation,4.91953925,52.34649925,13.0
298,2022-10-17,07:00 - 07:59,09023,Camperstraat,4.91383551,52.3584033,10.0
299,2022-10-17,07:00 - 07:59,09026,Amstelstation,4.91874992,52.34619953,15.0
300,2022-10-17,07:00 - 07:59,09114,De Pijp,4.88948829,52.35259622,18.0
301,2022-10-17,07:00 - 07:59,ASA,Amstelstation,4.91751426,52.34647326,322.0
302,2022-10-17,07:00 - 07:59,ASW,Amstelveenseweg,4.85798324,52.33836671,293.0
303,2022-10-17,07:00 - 07:59,BLW,Bullewijk,4.95233581,52.30642205,75.0
304,2022-10-17,07:00 - 07:59,BMR,Station Bijlmer ArenA,4.94713474,52.3119303,383.0
305,2022-10-17,07:00 - 07:59,CLL,Station Lelylaan,4.83426589,52.35766291,129.0
306,2022-10-17,07:00 - 07:59,CS,Centraal Station,4.9007815,52.37749421,1061.0
307,2022-10-17,07:00 - 07:59,DMZ,Station Diemen-Zuid,4.95713273,52.33042795,26.0
308,2022-10-17,07:00 - 07:59,DPP,De Pijp,4.89101069,52.35296212,102.0
309,2022-10-17,07:00 - 07:59,DVD,Station Duivendrecht,4.93678429,52.3232519,72.0
310,2022-10-17,07:00 - 07:59,EPP,Europaplein,4.8913843,52.34185482,108.0
311,2022-10-17,07:00 - 07:59,GN,Gein,4.98952268,52.29627089,23.0
312,2022-10-17,07:00 - 07:59,GPP,Gaasperplas,4.98468551,52.31080575,18.0
313,2022-10-17,07:00 - 07:59,GZH,Station Ganzenhoef,4.97323379,52.32331315,23.0
314,2022-10-17,07:00 - 07:59,HDS,Heemstedestraat,4.83421208,52.3525576,78.0
315,2022-10-17,07:00 - 07:59,HLD,Station Holendrecht,4.96021904,52.29780451,324.0
316,2022-10-17,07:00 - 07:59,HVW,Henk Sneevlietweg,4.83439318,52.34626699,141.0
317,2022-10-17,07:00 - 07:59,ITW,Isolatorweg,4.85013475,52.39523277,75.0
318,2022-10-17,07:00 - 07:59,JLS,Jan v.Galenstraat,4.83492461,52.37196551,184.0
319,2022-10-17,07:00 - 07:59,KEN,Kraaienneststation,4.9796345,52.31632492,24.0
320,2022-10-17,07:00 - 07:59,MDW,Van der Madeweg,4.93048657,52.32945629,67.0
321,2022-10-17,07:00 - 07:59,ND,Noord,4.93123182,52.40117202,132.0
322,2022-10-17,07:00 - 07:59,NDP,Noorderpark,4.91789115,52.38855518,58.0
323,2022-10-17,07:00 - 07:59,NMT,Nieuwmarkt,4.90123885,52.37194169,74.0
324,2022-10-17,07:00 - 07:59,OAS,Overamstel,4.91815361,52.33179879,83.0
325,2022-10-17,07:00 - 07:59,PJW,Postjesweg,4.83385543,52.36468044,26.0
326,2022-10-17,07:00 - 07:59,RAI,Station RAI,4.88982004,52.33739931,139.0
327,2022-10-17,07:00 - 07:59,RGB,Reigersbos,4.97473728,52.29566301,32.0
328,2022-10-17,07:00 - 07:59,RKN,Rokin,4.89229651,52.36928023,267.0
329,2022-10-17,07:00 - 07:59,SLW,Spaklerweg,4.9208564,52.3398625,93.0
330,2022-10-17,07:00 - 07:59,STD,Station Sloterdijk,4.83878389,52.38880848,313.0
331,2022-10-17,07:00 - 07:59,SVT,Strandvliet,4.9415282,52.31825469,27.0
332,2022-10-17,07:00 - 07:59,VLN,Burg.de Vlugtlaan,4.83809109,52.37951196,34.0
333,2022-10-17,07:00 - 07:59,VPD,Venserpolder,4.94665009,52.32679428,47.0
334,2022-10-17,07:00 - 07:59,VSW,Verrijn Stuartweg,4.96693669,52.32844093,32.0
335,2022-10-17,07:00 - 07:59,VZG,Vijzelgracht,4.8907287,52.35980061,99.0
336,2022-10-17,07:00 - 07:59,WBS,Wibautstraat,4.91202993,52.35428867,212.0
337,2022-10-17,07:00 - 07:59,WLP,Waterlooplein,4.90298171,52.36697862,212.0
338,2022-10-17,07:00 - 07:59,WPP,Weesperplein,4.90787469,52.36120146,285.0
339,2022-10-17,07:00 - 07:59,WTC,Station Zuid,4.87509853,52.33908015,845.0
340,2022-10-17,08:00 - 08:59,,Overig,,,2539.0
341,2022-10-17,08:00 - 08:59,[[ Onb,[[ Onbekend ]],0.0,0.0,718.0
342,2022-10-17,08:00 - 08:59,00005,Muiderpoortstation,4.93280219,52.36121887,30.0
343,2022-10-17,08:00 - 08:59,00006,Muiderpoortstation,4.93368466,52.36106048,11.0
344,2022-10-17,08:00 - 08:59,00007,Muiderpoortstation,4.93356602,52.36117686,14.0
345,2022-10-17,08:00 - 08:59,00008,Dapperstraat,4.92977913,52.36110836,27.0
346,2022-10-17,08:00 - 08:59,00010,Dapperstraat,4.92891486,52.36092527,11.0
347,2022-10-17,08:00 - 08:59,00017,Linnaeusstraat,4.92573745,52.36013099,14.0
348,2022-10-17,08:00 - 08:59,00018,Diemerknoop,5.00286153,52.33537576,13.0
349,2022-10-17,08:00 - 08:59,00019,Diemerknoop,5.00296377,52.33543002,12.0
350,2022-10-17,08:00 - 08:59,00020,Beukenweg,4.91674979,52.35906203,17.0
351,2022-10-17,08:00 - 08:59,00021,Beukenweg,4.91721293,52.35829991,49.0
352,2022-10-17,08:00 - 08:59,00023,Beukenplein,4.91809259,52.35701816,19.0
353,2022-10-17,08:00 - 08:59,00029,Oostpoort,4.92719316,52.35707185,17.0
354,2022-10-17,08:00 - 08:59,00030,Oostpoort,4.92694026,52.35739442,12.0
355,2022-10-17,08:00 - 08:59,00040,Hogeweg,4.93135765,52.35321425,12.0
356,2022-10-17,08:00 - 08:59,00065,Hugo de Vrieslaan,4.9348734,52.35101676,11.0
357,2022-10-17,08:00 - 08:59,00070,Kruislaan,4.9399391,52.34789929,16.0
358,2022-10-17,08:00 - 08:59,00113,Dennenrode,4.95124546,52.32191297,11.0
359,2022-10-17,08:00 - 08:59,00116,Station Ganzenhoef,4.97272915,52.32237665,9.0
360,2022-10-17,08:00 - 08:59,00152,Florijn,4.95859163,52.31758973,9.0
361,2022-10-17,08:00 - 08:59,00205,Station Holendrecht,4.95865657,52.29716971,11.0
362,2022-10-17,08:00 - 08:59,00238,Anton de Komplein,4.95413359,52.31603659,28.0
363,2022-10-17,08:00 - 08:59,00239,Anton de Komplein,4.95597669,52.31652866,11.0
364,2022-10-17,08:00 - 08:59,00251,Station Diemen Zuid,4.95681979,52.33093012,10.0
365,2022-10-17,08:00 - 08:59,00432,Diemerbrug,4.96142958,52.33824484,13.0
366,2022-10-17,08:00 - 08:59,00444,Linnaeusstraat,4.92490296,52.35991203,31.0
367,2022-10-17,08:00 - 08:59,00453,Diemen Sniep,4.96964866,52.33644962,20.0
368,2022-10-17,08:00 - 08:59,00491,Science Park Aer,4.95218495,52.35478458,144.0
369,2022-10-17,08:00 - 08:59,00494,Science Park Aqua,4.95416922,52.35601419,17.0
370,2022-10-17,08:00 - 08:59,00505,Arent Krijtsstraat,4.95469645,52.33956859,11.0
371,2022-10-17,08:00 - 08:59,00506,Science Park Terra,4.95831008,52.35434856,17.0
372,2022-10-17,08:00 - 08:59,00507,Science Park Terra,4.95772497,52.35413972,18.0
373,2022-10-17,08:00 - 08:59,00511,Station Duivendrecht,4.93630319,52.32296246,11.0
374,2022-10-17,08:00 - 08:59,00518,Foppingadreef,4.94967889,52.31268573,18.0
375,2022-10-17,08:00 - 08:59,00538,Station Science Park,4.94808393,52.35239669,18.0
376,2022-10-17,08:00 - 08:59,00554,Science Park,4.95088162,52.3544742,48.0
377,2022-10-17,08:00 - 08:59,00560,Station Bijlmer ArenA,4.94747867,52.3112575,80.0
378,2022-10-17,08:00 - 08:59,00561,Station Bijlmer ArenA,4.94741931,52.31132918,67.0
379,2022-10-17,08:00 - 08:59,00562,Station Bijlmer ArenA,4.94736012,52.31138289,50.0
380,2022-10-17,08:00 - 08:59,00568,Station Bijlmer ArenA,4.94762664,52.31112323,49.0
381,2022-10-17,08:00 - 08:59,00601,Van Houtenlaan,5.03711994,52.30381828,21.0
382,2022-10-17,08:00 - 08:59,00665,Station Weesp,5.04383463,52.31145059,25.0
383,2022-10-17,08:00 - 08:59,01061,Wervershoofstraat,4.93954583,52.39271041,11.0
384,2022-10-17,08:00 - 08:59,01278,Statenjachtstraat,4.91380643,52.40790731,11.0
385,2022-10-17,08:00 - 08:59,01305,Station Noord,4.93227507,52.40260507,9.0
386,2022-10-17,08:00 - 08:59,01321,Station Noord,4.93304669,52.40187104,21.0
387,2022-10-17,08:00 - 08:59,01363,Buikslotermeerplein,4.93968364,52.39943369,9.0
388,2022-10-17,08:00 - 08:59,01364,Buikslotermeerplein,4.93887054,52.39992493,11.0
389,2022-10-17,08:00 - 08:59,01365,Atat?rk,4.89794256,52.40319625,15.0
390,2022-10-17,08:00 - 08:59,01402,Floraweg,4.90614362,52.39899665,15.0
391,2022-10-17,08:00 - 08:59,01403,Distelweg,4.90268094,52.39451567,10.0
392,2022-10-17,08:00 - 08:59,01414,Olof Palmeplein,4.94012168,52.39679298,11.0
393,2022-10-17,08:00 - 08:59,01417,Johan v.Hasseltweg,4.9230987,52.3878477,11.0
394,2022-10-17,08:00 - 08:59,01422,Noorderpark,4.91956087,52.38902016,10.0
395,2022-10-17,08:00 - 08:59,02012,Koivistokade,4.87515397,52.3978781,304.0
396,2022-10-17,08:00 - 08:59,02020,Haparandaweg,4.87628003,52.39451258,52.0
397,2022-10-17,08:00 - 08:59,02064,Kabelweg,4.84827817,52.39205168,20.0
398,2022-10-17,08:00 - 08:59,02066,La Guardiaweg,4.84008244,52.39190625,20.0
399,2022-10-17,08:00 - 08:59,02069,Basisweg,4.84325151,52.39224441,11.0
400,2022-10-17,08:00 - 08:59,02094,Zaanstraat,4.87012818,52.39291304,10.0
401,2022-10-17,08:00 - 08:59,02103,Spaarndammerstraat,4.87754073,52.39219919,44.0
402,2022-10-17,08:00 - 08:59,02106,Assendelftstraat,4.8794384,52.38941217,10.0
403,2022-10-17,08:00 - 08:59,02113,Haarlemmerplein,4.88371739,52.38516129,26.0
404,2022-10-17,08:00 - 08:59,02114,Haarlemmerplein,4.88341252,52.38484542,38.0
405,2022-10-17,08:00 - 08:59,02130,Hugo de Grootplein,4.87259092,52.37439113,9.0
406,2022-10-17,08:00 - 08:59,02155,Willem de Zwijgerlaan,4.86360306,52.3707117,18.0
407,2022-10-17,08:00 - 08:59,02156,Willem de Zwijgerlaan,4.86425293,52.37039101,27.0
408,2022-10-17,08:00 - 08:59,02157,Adm. de Ruijterweg,4.86009911,52.37148707,16.0
409,2022-10-17,08:00 - 08:59,02158,Adm. de Ruijterweg,4.86096777,52.3712932,18.0
410,2022-10-17,08:00 - 08:59,02166,Bos en Lommerweg,4.85548704,52.38016657,9.0
411,2022-10-17,08:00 - 08:59,02170,Spaarndammerstraat,4.87723089,52.3923147,27.0
412,2022-10-17,08:00 - 08:59,02172,Molenwerf,4.84594416,52.38588446,10.0
413,2022-10-17,08:00 - 08:59,02174,Molenwerf,4.84685493,52.38587963,11.0
414,2022-10-17,08:00 - 08:59,02193,Marnixplein,4.8784449,52.37741832,20.0
415,2022-10-17,08:00 - 08:59,02222,Jan van Galenstraat,4.85874763,52.37399761,11.0
416,2022-10-17,08:00 - 08:59,02260,Contactweg,4.85432952,52.39215995,15.0
417,2022-10-17,08:00 - 08:59,02319,Solebaystraat,4.85540788,52.38431853,12.0
418,2022-10-17,08:00 - 08:59,02321,Van Hallstraat,4.86864429,52.38538386,42.0
419,2022-10-17,08:00 - 08:59,02361,Station Sloterdijk,4.83931858,52.3883346,157.0
420,2022-10-17,08:00 - 08:59,02365,Station Sloterdijk,4.83873236,52.38822404,63.0
421,2022-10-17,08:00 - 08:59,02366,Station Sloterdijk,4.83873347,52.38813416,33.0
422,2022-10-17,08:00 - 08:59,02367,Station Sloterdijk,4.83876429,52.38801747,113.0
423,2022-10-17,08:00 - 08:59,02368,Station Sloterdijk,4.83877999,52.38793665,26.0
424,2022-10-17,08:00 - 08:59,02378,Station Sloterdijk,4.83809796,52.38844579,15.0
425,2022-10-17,08:00 - 08:59,03023,Marco Polostraat,4.85520189,52.37088096,17.0
426,2022-10-17,08:00 - 08:59,03024,Marco Polostraat,4.85546532,52.37095405,13.0
427,2022-10-17,08:00 - 08:59,03025,Jan v.Galenstraat,4.84854861,52.37342137,12.0
428,2022-10-17,08:00 - 08:59,03034,Erasmusgracht,4.84691117,52.37644278,11.0
429,2022-10-17,08:00 - 08:59,03052,Burg. Eliasstraat,4.82565009,52.38077481,12.0
430,2022-10-17,08:00 - 08:59,03057,Anth. Moddermanstraat,4.81474778,52.38339197,9.0
431,2022-10-17,08:00 - 08:59,03060,Bos en Lommerplein,4.84718407,52.37815169,11.0
432,2022-10-17,08:00 - 08:59,03061,Bos en Lommerplein,4.8452353,52.37778328,48.0
433,2022-10-17,08:00 - 08:59,03076,Jan Tooropstraat,4.83810313,52.37142305,31.0
434,2022-10-17,08:00 - 08:59,03077,Jan Tooropstraat,4.83817288,52.37171997,14.0
435,2022-10-17,08:00 - 08:59,03087,Plein '40 - '45,4.82063128,52.38159575,24.0
436,2022-10-17,08:00 - 08:59,03090,Slotermeerlaan,4.81728149,52.37596234,11.0
437,2022-10-17,08:00 - 08:59,03101,Lambertus Zijlplein,4.80300456,52.37726788,11.0
438,2022-10-17,08:00 - 08:59,03121,Aalbersestraat,4.79774249,52.38202329,11.0
439,2022-10-17,08:00 - 08:59,03129,Plein '40 - '45,4.82112672,52.38075328,31.0
440,2022-10-17,08:00 - 08:59,03135,Ookmeerweg,4.80431836,52.36558127,26.0
441,2022-10-17,08:00 - 08:59,03150,Mercatorplein,4.85011339,52.37031872,19.0
442,2022-10-17,08:00 - 08:59,03167,Bos en Lommerplein,4.84650668,52.37709704,26.0
443,2022-10-17,08:00 - 08:59,03168,Mercatorplein,4.85152392,52.37024423,11.0
444,2022-10-17,08:00 - 08:59,03178,Mercatorplein,4.84991664,52.37080317,15.0
445,2022-10-17,08:00 - 08:59,03184,Jan Voermanstraat,4.83960999,52.36949767,10.0
446,2022-10-17,08:00 - 08:59,03198,W. Schoutenstraat,4.85259061,52.36702245,9.0
447,2022-10-17,08:00 - 08:59,04008,Dijkgraafplein,4.78646982,52.35545267,12.0
448,2022-10-17,08:00 - 08:59,04009,Dijkgraafplein,4.78689401,52.35556268,10.0
449,2022-10-17,08:00 - 08:59,04012,Baden Powellweg,4.79137362,52.35646612,13.0
450,2022-10-17,08:00 - 08:59,04016,Hoekenes,4.79854723,52.3579131,11.0
451,2022-10-17,08:00 - 08:59,04021,Osdorpplein West,4.80322869,52.35913166,32.0
452,2022-10-17,08:00 - 08:59,04049,Meer en Vaart,4.81058859,52.3564714,10.0
453,2022-10-17,08:00 - 08:59,04050,Meer en Vaart,4.80994403,52.3563694,16.0
454,2022-10-17,08:00 - 08:59,04060,Derkinderenstraat,4.83972293,52.35796689,38.0
455,2022-10-17,08:00 - 08:59,04061,Derkinderenstraat,4.84014895,52.3579419,28.0
456,2022-10-17,08:00 - 08:59,04065,Osdorpplein Oost,4.80773259,52.35935153,24.0
457,2022-10-17,08:00 - 08:59,04088,Louwesweg,4.8243642,52.34669608,34.0
458,2022-10-17,08:00 - 08:59,04102,Aalsmeerplein,4.84680029,52.34697142,12.0
459,2022-10-17,08:00 - 08:59,04111,Delflandlaan,4.84191575,52.35154177,10.0
460,2022-10-17,08:00 - 08:59,04112,Johan Huizingalaan,4.82742878,52.34923618,50.0
461,2022-10-17,08:00 - 08:59,04195,Station Lelylaan,4.83460082,52.35788018,99.0
462,2022-10-17,08:00 - 08:59,04196,Station Lelylaan,4.83382251,52.35790351,148.0
463,2022-10-17,08:00 - 08:59,04265,Schiphol Airport/Plaza,4.75941951,52.309591,43.0
464,2022-10-17,08:00 - 08:59,04267,Schiphol Airport/Plaza,4.76111192,52.30915956,16.0
465,2022-10-17,08:00 - 08:59,04277,Laan v.Vlaanderen,4.8164272,52.3464873,10.0
466,2022-10-17,08:00 - 08:59,04279,Centrum Nieuw Sloten,4.81104244,52.3463893,12.0
467,2022-10-17,08:00 - 08:59,04379,Knooppunt Schiphol Nrd,4.79342507,52.32272711,64.0
468,2022-10-17,08:00 - 08:59,04401,Matterhorn,4.77438097,52.3539167,10.0
469,2022-10-17,08:00 - 08:59,04402,Matterhorn,4.77477998,52.35372103,29.0
470,2022-10-17,08:00 - 08:59,04407,Ecuplein,4.7881767,52.34970912,13.0
471,2022-10-17,08:00 - 08:59,04409,Baden Powellweg,4.79441281,52.35092691,12.0
472,2022-10-17,08:00 - 08:59,04411,Hoekenes,4.8018343,52.35243785,12.0
473,2022-10-17,08:00 - 08:59,05011,Centraal Station,4.89921803,52.37810793,253.0
474,2022-10-17,08:00 - 08:59,05022,Centraal Station,4.90104337,52.37771998,374.0
475,2022-10-17,08:00 - 08:59,05031,Dam,4.89348394,52.37341055,58.0
476,2022-10-17,08:00 - 08:59,05032,Dam,4.8954936,52.37492885,89.0
477,2022-10-17,08:00 - 08:59,05035,Rokin,4.89210433,52.36939627,43.0
478,2022-10-17,08:00 - 08:59,05036,Rokin,4.89230478,52.36985548,41.0
479,2022-10-17,08:00 - 08:59,05046,Rembrandtplein,4.89627976,52.36625897,32.0
480,2022-10-17,08:00 - 08:59,05047,Rembrandtplein,4.89702882,52.36623511,57.0
481,2022-10-17,08:00 - 08:59,05058,Paleisstraat,4.89063746,52.37188871,93.0
482,2022-10-17,08:00 - 08:59,05060,Koningsplein,4.88894752,52.36807981,32.0
483,2022-10-17,08:00 - 08:59,05063,Paleisstraat,4.89064591,52.37244599,23.0
484,2022-10-17,08:00 - 08:59,05064,Koningsplein,4.8894961,52.36760577,94.0
485,2022-10-17,08:00 - 08:59,05073,Westermarkt,4.88453426,52.37400204,67.0
486,2022-10-17,08:00 - 08:59,05074,Westermarkt,4.8835495,52.37407874,81.0
487,2022-10-17,08:00 - 08:59,05077,Marnixstraat,4.87615428,52.37228546,21.0
488,2022-10-17,08:00 - 08:59,05079,Buiten Oranjestraat,4.88805879,52.38312149,9.0
489,2022-10-17,08:00 - 08:59,05080,Buiten Oranjestraat,4.88782167,52.38330923,28.0
490,2022-10-17,08:00 - 08:59,05081,Buiten Brouwersstraat,4.89157253,52.38150947,24.0
491,2022-10-17,08:00 - 08:59,05082,Buiten Brouwersstraat,4.89129168,52.38167008,9.0
492,2022-10-17,08:00 - 08:59,05090,Westerdoksdijk,4.89331977,52.38551629,25.0
493,2022-10-17,08:00 - 08:59,05092,Barentszplein,4.89160204,52.38938281,37.0
494,2022-10-17,08:00 - 08:59,05097,Centraal Station,4.90046323,52.37973084,153.0
495,2022-10-17,08:00 - 08:59,05101,Centraal Station,4.90081491,52.37980418,22.0
496,2022-10-17,08:00 - 08:59,05103,Centraal Station,4.9009941,52.37953529,128.0
497,2022-10-17,08:00 - 08:59,05105,Centraal Station,4.90187664,52.37941308,39.0
498,2022-10-17,08:00 - 08:59,05138,Mozes en A?ronstraat,4.891309,52.37355425,20.0
499,2022-10-17,08:00 - 08:59,05139,Paleisstraat,4.89124483,52.37272712,42.0
500,2022-10-17,08:00 - 08:59,05154,Marnixstraat,4.87536375,52.37207533,18.0
501,2022-10-17,08:00 - 08:59,06001,Surinameplein,4.85252231,52.35807034,62.0
502,2022-10-17,08:00 - 08:59,06002,Surinameplein,4.85090753,52.35807202,25.0
503,2022-10-17,08:00 - 08:59,06015,Postjesweg,4.85316124,52.36352879,11.0
504,2022-10-17,08:00 - 08:59,06023,Bilderdijkstraat,4.87254032,52.36736251,16.0
505,2022-10-17,08:00 - 08:59,06024,Kinkerstraat,4.87230885,52.36706491,25.0
506,2022-10-17,08:00 - 08:59,06025,Kinkerstraat,4.87201094,52.36743211,32.0
507,2022-10-17,08:00 - 08:59,06027,Elandsgracht,4.87855189,52.36808953,41.0
508,2022-10-17,08:00 - 08:59,06028,Elandsgracht,4.87741694,52.36974738,29.0
509,2022-10-17,08:00 - 08:59,06029,Elandsgracht,4.87684368,52.36852258,12.0
510,2022-10-17,08:00 - 08:59,06030,Rozengracht,4.87590932,52.37187996,16.0
511,2022-10-17,08:00 - 08:59,06034,Bilderdijkstraat,4.87082347,52.37105798,29.0
512,2022-10-17,08:00 - 08:59,06037,Bilderdijkstraat,4.86985701,52.37082906,21.0
513,2022-10-17,08:00 - 08:59,06038,De Clercqstraat,4.87040279,52.37061574,27.0
514,2022-10-17,08:00 - 08:59,06043,Overtoom,4.87510145,52.36299659,28.0
515,2022-10-17,08:00 - 08:59,06044,Overtoom,4.87483191,52.3634538,17.0
516,2022-10-17,08:00 - 08:59,06045,1e Con. Huygensstraat,4.87399228,52.36242556,40.0
517,2022-10-17,08:00 - 08:59,06046,1e Con. Huygensstraat,4.87487082,52.36262709,71.0
518,2022-10-17,08:00 - 08:59,06048,J.P. Heijestraat,4.86585368,52.36037674,46.0
519,2022-10-17,08:00 - 08:59,06049,J.P. Heijestraat,4.86671778,52.36055131,31.0
520,2022-10-17,08:00 - 08:59,06053,Rijksmuseum,4.88762091,52.36071327,45.0
521,2022-10-17,08:00 - 08:59,06054,Rijksmuseum,4.88691223,52.36106979,63.0
522,2022-10-17,08:00 - 08:59,06061,Leidseplein,4.88339576,52.36305015,104.0
523,2022-10-17,08:00 - 08:59,06063,Leidseplein,4.88064547,52.36476406,86.0
524,2022-10-17,08:00 - 08:59,06067,Leidseplein,4.88301434,52.3643158,21.0
525,2022-10-17,08:00 - 08:59,06072,Prinsengracht,4.88428435,52.36495933,38.0
526,2022-10-17,08:00 - 08:59,06073,Keizersgracht,4.88666521,52.36604795,15.0
527,2022-10-17,08:00 - 08:59,06074,Keizersgracht,4.88624128,52.36588437,28.0
528,2022-10-17,08:00 - 08:59,06081,Rhijnvis Feithstraat,4.86039355,52.35905833,22.0
529,2022-10-17,08:00 - 08:59,06082,Rhijnvis Feithstraat,4.85967683,52.35883943,23.0
530,2022-10-17,08:00 - 08:59,06089,Leidseplein,4.88085541,52.36309324,127.0
531,2022-10-17,08:00 - 08:59,06115,Postjesweg,4.85319014,52.3647872,21.0
532,2022-10-17,08:00 - 08:59,07000,Concertgebouw,4.87980116,52.35642881,22.0
533,2022-10-17,08:00 - 08:59,07001,Concertgebouw,4.87950215,52.35690388,114.0
534,2022-10-17,08:00 - 08:59,07002,Van Baerlestraat,4.87836936,52.35839997,12.0
535,2022-10-17,08:00 - 08:59,07004,De Boelelaan/VU,4.86582598,52.33524681,53.0
536,2022-10-17,08:00 - 08:59,07015,Roelof Hartplein,4.88206971,52.353149,15.0
537,2022-10-17,08:00 - 08:59,07016,Roelof Hartplein,4.88286688,52.35274795,29.0
538,2022-10-17,08:00 - 08:59,07017,Roelof Hartplein,4.88206087,52.35263666,23.0
539,2022-10-17,08:00 - 08:59,07034,Amstelveenseweg,4.85596467,52.35132704,11.0
540,2022-10-17,08:00 - 08:59,07035,Zeilstraat,4.85672894,52.35124059,31.0
541,2022-10-17,08:00 - 08:59,07048,Hoofddorpplein,4.85010578,52.35154327,11.0
542,2022-10-17,08:00 - 08:59,07049,Hoofddorpplein,4.84958188,52.35117239,25.0
543,2022-10-17,08:00 - 08:59,07050,Haarlemmermeerstation,4.85744749,52.34883508,19.0
544,2022-10-17,08:00 - 08:59,07065,Valeriusplein,4.86438547,52.35167012,11.0
545,2022-10-17,08:00 - 08:59,07066,Valeriusplein,4.86470709,52.35177939,12.0
546,2022-10-17,08:00 - 08:59,07069,Emmastraat,4.8696689,52.3529696,20.0
547,2022-10-17,08:00 - 08:59,07070,Emmastraat,4.87013616,52.35317836,25.0
548,2022-10-17,08:00 - 08:59,07083,Gerrit v.d. Veenstraat,4.87735929,52.34921014,17.0
549,2022-10-17,08:00 - 08:59,07084,Gerrit v.d. Veenstraat,4.87720177,52.34886793,16.0
550,2022-10-17,08:00 - 08:59,07088,Stadionweg,4.87687497,52.34665553,11.0
551,2022-10-17,08:00 - 08:59,07098,Olympiaplein,4.86659057,52.34636807,9.0
552,2022-10-17,08:00 - 08:59,07108,Olympiaweg,4.8587373,52.34528169,14.0
553,2022-10-17,08:00 - 08:59,07116,Haarlemmermeerstation,4.8576041,52.34924023,10.0
554,2022-10-17,08:00 - 08:59,07120,Olympiaweg,4.8583413,52.34526195,14.0
555,2022-10-17,08:00 - 08:59,07130,Pr. Irenestraat,4.86819699,52.34202504,13.0
556,2022-10-17,08:00 - 08:59,07133,De Boelelaan,4.86754589,52.33496677,23.0
557,2022-10-17,08:00 - 08:59,07157,Van Heenvlietlaan,4.88302129,52.32494043,14.0
558,2022-10-17,08:00 - 08:59,07186,Pr. Irenestraat,4.87677483,52.34260161,15.0
559,2022-10-17,08:00 - 08:59,07190,Station Zuid,4.87353629,52.34094284,24.0
560,2022-10-17,08:00 - 08:59,07193,Station Zuid,4.87250968,52.34089344,48.0
561,2022-10-17,08:00 - 08:59,07202,Olympisch stadion,4.8568442,52.34405088,13.0
562,2022-10-17,08:00 - 08:59,07263,Station RAI,4.89016586,52.33665478,12.0
563,2022-10-17,08:00 - 08:59,07266,Station Zuid,4.87252654,52.34070477,36.0
564,2022-10-17,08:00 - 08:59,07268,Station Zuid,4.87416869,52.34081975,33.0
565,2022-10-17,08:00 - 08:59,07269,Station Zuid,4.8732882,52.34082492,122.0
566,2022-10-17,08:00 - 08:59,07270,Parnassusweg,4.86874218,52.33806382,67.0
567,2022-10-17,08:00 - 08:59,07271,Parnassusweg,4.86866745,52.33818033,45.0
568,2022-10-17,08:00 - 08:59,07294,Station Zuid,4.87377387,52.3407012,62.0
569,2022-10-17,08:00 - 08:59,07303,VU medisch centrum,4.86097062,52.33515342,92.0
570,2022-10-17,08:00 - 08:59,07310,Apollolaan,4.88211179,52.34816097,10.0
571,2022-10-17,08:00 - 08:59,07325,Museumplein,4.88046549,52.3586696,64.0
572,2022-10-17,08:00 - 08:59,07326,Museumplein,4.88178292,52.3589988,64.0
573,2022-10-17,08:00 - 08:59,07350,VU medisch centrum,4.86006046,52.33519431,11.0
574,2022-10-17,08:00 - 08:59,07391,Kronenburg,4.87070592,52.31556694,26.0
575,2022-10-17,08:00 - 08:59,07419,Van Boshuizenstraat,4.86896941,52.32487971,36.0
576,2022-10-17,08:00 - 08:59,07423,Uilenstede,4.86910951,52.32167168,21.0
577,2022-10-17,08:00 - 08:59,07435,Onderuit,4.87243689,52.30793483,11.0
578,2022-10-17,08:00 - 08:59,07439,Oranjebaan,4.87179001,52.30302465,45.0
579,2022-10-17,08:00 - 08:59,07442,Zonnestein,4.87236664,52.31146674,16.0
580,2022-10-17,08:00 - 08:59,07445,Amstelveen Stadshart,4.86751502,52.30124433,60.0
581,2022-10-17,08:00 - 08:59,07448,A.J. Ernststraat,4.86887597,52.33288743,37.0
582,2022-10-17,08:00 - 08:59,07449,A.J. Ernststraat,4.86879476,52.33230287,52.0
583,2022-10-17,08:00 - 08:59,07453,Ouderkerkerlaan,4.86721192,52.29582332,16.0
584,2022-10-17,08:00 - 08:59,08007,Bob Haarmslaan,4.96921237,52.36876786,11.0
585,2022-10-17,08:00 - 08:59,08013,Azartplein,4.93734445,52.37656023,11.0
586,2022-10-17,08:00 - 08:59,08014,Azartplein,4.9373564,52.37682991,11.0
587,2022-10-17,08:00 - 08:59,08016,Wittenburgergracht,4.919694,52.36942754,17.0
588,2022-10-17,08:00 - 08:59,08027,Kadijksplein,4.91357159,52.37075136,15.0
589,2022-10-17,08:00 - 08:59,08034,P. Hendrikkade (uitstaphalte),4.90238928,52.37685369,33.0
590,2022-10-17,08:00 - 08:59,08043,Artis,4.91141423,52.36653646,18.0
591,2022-10-17,08:00 - 08:59,08050,Alexanderplein,4.91867098,52.36341072,14.0
592,2022-10-17,08:00 - 08:59,08051,K. 's-Gravesandestr.,4.9136612,52.3623572,43.0
593,2022-10-17,08:00 - 08:59,08053,Weesperplein,4.9065569,52.36088154,24.0
594,2022-10-17,08:00 - 08:59,08054,Weesperplein,4.90941338,52.36145933,153.0
595,2022-10-17,08:00 - 08:59,08057,Frederiksplein,4.90024241,52.3597143,100.0
596,2022-10-17,08:00 - 08:59,08058,Veelaan,4.93961588,52.36830916,21.0
597,2022-10-17,08:00 - 08:59,08059,Veelaan,4.93944523,52.36776026,30.0
598,2022-10-17,08:00 - 08:59,08060,Keizersgracht,4.89833435,52.36367901,22.0
599,2022-10-17,08:00 - 08:59,08066,Frederiksplein,4.89751569,52.3593705,20.0
600,2022-10-17,08:00 - 08:59,08071,Muntplein,4.89312361,52.36620989,45.0
601,2022-10-17,08:00 - 08:59,08072,Vijzelgracht,4.89159781,52.35953462,60.0
602,2022-10-17,08:00 - 08:59,08073,Vijzelgracht,4.89227386,52.35946554,43.0
603,2022-10-17,08:00 - 08:59,08086,Muntplein,4.89308297,52.36590414,12.0
604,2022-10-17,08:00 - 08:59,08094,Wijttenbachstraat,4.92547668,52.35979743,18.0
605,2022-10-17,08:00 - 08:59,08095,Alexanderplein,4.91969863,52.36341478,29.0
606,2022-10-17,08:00 - 08:59,08096,Alexanderplein,4.91931589,52.36351213,12.0
607,2022-10-17,08:00 - 08:59,08097,1e v.Swindenstraat,4.92412105,52.36168854,16.0
608,2022-10-17,08:00 - 08:59,08119,Insulindeweg,4.94765323,52.36476217,13.0
609,2022-10-17,08:00 - 08:59,08120,Insulindeweg,4.94763926,52.36469021,29.0
610,2022-10-17,08:00 - 08:59,08124,Soembawastraat,4.94346569,52.3621491,9.0
611,2022-10-17,08:00 - 08:59,08129,Molukkenstraat,4.93861286,52.36150167,17.0
612,2022-10-17,08:00 - 08:59,08139,Zuiderzeeweg,4.96240105,52.37166461,10.0
613,2022-10-17,08:00 - 08:59,08176,K. 's-Gravesandestr.,4.91417416,52.36244014,60.0
614,2022-10-17,08:00 - 08:59,08183,Het Funen,4.9316077,52.36746073,16.0
615,2022-10-17,08:00 - 08:59,08190,Molukkenstraat,4.93934614,52.36157635,14.0
616,2022-10-17,08:00 - 08:59,08195,Oostenburgergracht,4.92452709,52.36780177,18.0
617,2022-10-17,08:00 - 08:59,08222,Peter Martensstraat,5.01433929,52.34884909,11.0
618,2022-10-17,08:00 - 08:59,08234,Muziekgeb. Bimhuis,4.91316454,52.37723884,11.0
619,2022-10-17,08:00 - 08:59,08235,Muziekgeb. Bimhuis,4.9129002,52.37723779,45.0
620,2022-10-17,08:00 - 08:59,08236,Kattenburgerstraat,4.92203232,52.37607865,14.0
621,2022-10-17,08:00 - 08:59,08237,Kattenburgerstraat,4.92126795,52.37614755,92.0
622,2022-10-17,08:00 - 08:59,08238,Rietlandpark,4.93350159,52.37322013,49.0
623,2022-10-17,08:00 - 08:59,08239,Rietlandpark,4.93413567,52.37296191,123.0
624,2022-10-17,08:00 - 08:59,08241,Zuiderzeeweg,4.96185517,52.37193228,16.0
625,2022-10-17,08:00 - 08:59,08245,Steigereiland,4.98012952,52.36313467,99.0
626,2022-10-17,08:00 - 08:59,08247,Vennepluimstraat,4.99057242,52.35769662,38.0
627,2022-10-17,08:00 - 08:59,08249,Diemerparklaan,4.99499716,52.35532962,38.0
628,2022-10-17,08:00 - 08:59,08251,Lumi?restraat,4.99942127,52.35298044,12.0
629,2022-10-17,08:00 - 08:59,08255,Hoogte Kadijk,4.92483038,52.36687722,23.0
630,2022-10-17,08:00 - 08:59,08257,1e Coehoornstraat,4.92618328,52.36808685,10.0
631,2022-10-17,08:00 - 08:59,08259,1e Leeghwaterstraat,4.93004964,52.37047459,32.0
632,2022-10-17,08:00 - 08:59,08261,Rietlandpark,4.93481067,52.37300943,10.0
633,2022-10-17,08:00 - 08:59,08262,IJburg,5.00486802,52.35112872,47.0
634,2022-10-17,08:00 - 08:59,08281,Vennepluimstraat,4.99139941,52.35714215,9.0
635,2022-10-17,08:00 - 08:59,08300,P.Oosterhuisstraat,5.00734025,52.35208937,14.0
636,2022-10-17,08:00 - 08:59,09003,Dintelstraat,4.89289498,52.34192405,9.0
637,2022-10-17,08:00 - 08:59,09013,Amstelstation,4.91790223,52.34725673,33.0
638,2022-10-17,08:00 - 08:59,09015,Amstelstation,4.91940405,52.34679531,31.0
639,2022-10-17,08:00 - 08:59,09023,Camperstraat,4.91383551,52.3584033,11.0
640,2022-10-17,08:00 - 08:59,09026,Amstelstation,4.91874992,52.34619953,16.0
641,2022-10-17,08:00 - 08:59,09028,Amstelstation,4.91867673,52.34618127,16.0
642,2022-10-17,08:00 - 08:59,09049,Victorieplein,4.90570139,52.34637186,25.0
643,2022-10-17,08:00 - 08:59,09058,Van Hilligaertstraat,4.89144744,52.34934189,20.0
644,2022-10-17,08:00 - 08:59,09061,Waalstraat,4.90060087,52.34442762,10.0
645,2022-10-17,08:00 - 08:59,09070,Scheldestraat,4.88952142,52.34702395,10.0
646,2022-10-17,08:00 - 08:59,09079,Maasstraat,4.89545003,52.34706671,9.0
647,2022-10-17,08:00 - 08:59,09091,Lutmastraat,4.90313216,52.35184391,12.0
648,2022-10-17,08:00 - 08:59,09096,Van Woustraat,4.90163035,52.3549565,12.0
649,2022-10-17,08:00 - 08:59,09097,Van Woustraat,4.9008407,52.35468363,21.0
650,2022-10-17,08:00 - 08:59,09102,Frederiksplein,4.89904996,52.35868478,10.0
651,2022-10-17,08:00 - 08:59,09109,2e v.d.Helststraat,4.8948817,52.35331982,13.0
652,2022-10-17,08:00 - 08:59,09111,De Pijp,4.89073444,52.35272728,32.0
653,2022-10-17,08:00 - 08:59,09114,De Pijp,4.88948829,52.35259622,23.0
654,2022-10-17,08:00 - 08:59,09122,Marie Heinekenplein,4.89065823,52.35691525,9.0
655,2022-10-17,08:00 - 08:59,09139,Amsteldijk,4.91124086,52.34711329,26.0
656,2022-10-17,08:00 - 08:59,09140,Amsteldijk,4.91055179,52.3470476,14.0
657,2022-10-17,08:00 - 08:59,ASA,Amstelstation,4.91751426,52.34647326,817.0
658,2022-10-17,08:00 - 08:59,ASW,Amstelveenseweg,4.85798324,52.33836671,732.0
659,2022-10-17,08:00 - 08:59,BLW,Bullewijk,4.95233581,52.30642205,286.0
660,2022-10-17,08:00 - 08:59,BMR,Station Bijlmer ArenA,4.94713474,52.3119303,1013.0
661,2022-10-17,08:00 - 08:59,CLL,Station Lelylaan,4.83426589,52.35766291,220.0
662,2022-10-17,08:00 - 08:59,CS,Centraal Station,4.9007815,52.37749421,1563.0
663,2022-10-17,08:00 - 08:59,DMZ,Station Diemen-Zuid,4.95713273,52.33042795,114.0
664,2022-10-17,08:00 - 08:59,DPP,De Pijp,4.89101069,52.35296212,252.0
665,2022-10-17,08:00 - 08:59,DVD,Station Duivendrecht,4.93678429,52.3232519,122.0
666,2022-10-17,08:00 - 08:59,EPP,Europaplein,4.8913843,52.34185482,230.0
667,2022-10-17,08:00 - 08:59,GN,Gein,4.98952268,52.29627089,44.0
668,2022-10-17,08:00 - 08:59,GPP,Gaasperplas,4.98468551,52.31080575,18.0
669,2022-10-17,08:00 - 08:59,GZH,Station Ganzenhoef,4.97323379,52.32331315,66.0
670,2022-10-17,08:00 - 08:59,HDS,Heemstedestraat,4.83421208,52.3525576,172.0
671,2022-10-17,08:00 - 08:59,HLD,Station Holendrecht,4.96021904,52.29780451,769.0
672,2022-10-17,08:00 - 08:59,HVW,Henk Sneevlietweg,4.83439318,52.34626699,548.0
673,2022-10-17,08:00 - 08:59,ITW,Isolatorweg,4.85013475,52.39523277,230.0
674,2022-10-17,08:00 - 08:59,JLS,Jan v.Galenstraat,4.83492461,52.37196551,196.0
675,2022-10-17,08:00 - 08:59,KEN,Kraaienneststation,4.9796345,52.31632492,50.0
676,2022-10-17,08:00 - 08:59,MDW,Van der Madeweg,4.93048657,52.32945629,266.0
677,2022-10-17,08:00 - 08:59,ND,Noord,4.93123182,52.40117202,259.0
678,2022-10-17,08:00 - 08:59,NDP,Noorderpark,4.91789115,52.38855518,233.0
679,2022-10-17,08:00 - 08:59,NMT,Nieuwmarkt,4.90123885,52.37194169,241.0
680,2022-10-17,08:00 - 08:59,OAS,Overamstel,4.91815361,52.33179879,343.0
681,2022-10-17,08:00 - 08:59,PJW,Postjesweg,4.83385543,52.36468044,50.0
682,2022-10-17,08:00 - 08:59,RAI,Station RAI,4.88982004,52.33739931,435.0
683,2022-10-17,08:00 - 08:59,RGB,Reigersbos,4.97473728,52.29566301,53.0
684,2022-10-17,08:00 - 08:59,RKN,Rokin,4.89229651,52.36928023,754.0
685,2022-10-17,08:00 - 08:59,SLW,Spaklerweg,4.9208564,52.3398625,231.0
686,2022-10-17,08:00 - 08:59,STD,Station Sloterdijk,4.83878389,52.38880848,488.0
687,2022-10-17,08:00 - 08:59,SVT,Strandvliet,4.9415282,52.31825469,76.0
688,2022-10-17,08:00 - 08:59,VLN,Burg.de Vlugtlaan,4.83809109,52.37951196,43.0
689,2022-10-17,08:00 - 08:59,VPD,Venserpolder,4.94665009,52.32679428,109.0
690,2022-10-17,08:00 - 08:59,VSW,Verrijn Stuartweg,4.96693669,52.32844093,51.0
691,2022-10-17,08:00 - 08:59,VZG,Vijzelgracht,4.8907287,52.35980061,610.0
692,2022-10-17,08:00 - 08:59,WBS,Wibautstraat,4.91202993,52.35428867,226.0
693,2022-10-17,08:00 - 08:59,WLP,Waterlooplein,4.90298171,52.36697862,726.0
694,2022-10-17,08:00 - 08:59,WPP,Weesperplein,4.90787469,52.36120146,1200.0
695,2022-10-17,08:00 - 08:59,WTC,Station Zuid,4.87509853,52.33908015,2405.0
696,2022-10-17,09:00 - 09:59,,Overig,,,2292.0
697,2022-10-17,09:00 - 09:59,[[ Onb,[[ Onbekend ]],0.0,0.0,976.0
698,2022-10-17,09:00 - 09:59,00005,Muiderpoortstation,4.93280219,52.36121887,31.0
699,2022-10-17,09:00 - 09:59,00006,Muiderpoortstation,4.93368466,52.36106048,16.0
700,2022-10-17,09:00 - 09:59,00007,Muiderpoortstation,4.93356602,52.36117686,10.0
701,2022-10-17,09:00 - 09:59,00008,Dapperstraat,4.92977913,52.36110836,33.0
702,2022-10-17,09:00 - 09:59,00010,Dapperstraat,4.92891486,52.36092527,16.0
703,2022-10-17,09:00 - 09:59,00020,Beukenweg,4.91674979,52.35906203,18.0
704,2022-10-17,09:00 - 09:59,00021,Beukenweg,4.91721293,52.35829991,34.0
705,2022-10-17,09:00 - 09:59,00023,Beukenplein,4.91809259,52.35701816,16.0
706,2022-10-17,09:00 - 09:59,00024,Beukenplein,4.91807544,52.35725177,9.0
707,2022-10-17,09:00 - 09:59,00029,Oostpoort,4.92719316,52.35707185,17.0
708,2022-10-17,09:00 - 09:59,00030,Oostpoort,4.92694026,52.35739442,22.0
709,2022-10-17,09:00 - 09:59,00039,Hogeweg,4.93084015,52.35358075,11.0
710,2022-10-17,09:00 - 09:59,00059,Radioweg,4.9394583,52.353371,10.0
711,2022-10-17,09:00 - 09:59,00070,Kruislaan,4.9399391,52.34789929,22.0
712,2022-10-17,09:00 - 09:59,00074,Brinkstraat,4.94797289,52.34285131,11.0
713,2022-10-17,09:00 - 09:59,00141,Kraaienneststation,4.9786839,52.31603403,17.0
714,2022-10-17,09:00 - 09:59,00145,Kikkenstein,4.97271326,52.31621998,9.0
715,2022-10-17,09:00 - 09:59,00152,Florijn,4.95859163,52.31758973,10.0
716,2022-10-17,09:00 - 09:59,00197,Annie Romeinplein,4.97162041,52.32173463,11.0
717,2022-10-17,09:00 - 09:59,00205,Station Holendrecht,4.95865657,52.29716971,9.0
718,2022-10-17,09:00 - 09:59,00238,Anton de Komplein,4.95413359,52.31603659,36.0
719,2022-10-17,09:00 - 09:59,00239,Anton de Komplein,4.95597669,52.31652866,23.0
720,2022-10-17,09:00 - 09:59,00250,Station Diemen Zuid,4.9569113,52.33057094,11.0
721,2022-10-17,09:00 - 09:59,00432,Diemerbrug,4.96142958,52.33824484,13.0
722,2022-10-17,09:00 - 09:59,00444,Linnaeusstraat,4.92490296,52.35991203,27.0
723,2022-10-17,09:00 - 09:59,00453,Diemen Sniep,4.96964866,52.33644962,13.0
724,2022-10-17,09:00 - 09:59,00491,Science Park Aer,4.95218495,52.35478458,135.0
725,2022-10-17,09:00 - 09:59,00494,Science Park Aqua,4.95416922,52.35601419,25.0
726,2022-10-17,09:00 - 09:59,00505,Arent Krijtsstraat,4.95469645,52.33956859,10.0
727,2022-10-17,09:00 - 09:59,00506,Science Park Terra,4.95831008,52.35434856,22.0
728,2022-10-17,09:00 - 09:59,00507,Science Park Terra,4.95772497,52.35413972,15.0
729,2022-10-17,09:00 - 09:59,00518,Foppingadreef,4.94967889,52.31268573,22.0
730,2022-10-17,09:00 - 09:59,00538,Station Science Park,4.94808393,52.35239669,23.0
731,2022-10-17,09:00 - 09:59,00553,Kraaienneststation,4.98073727,52.31601414,11.0
732,2022-10-17,09:00 - 09:59,00554,Science Park,4.95088162,52.3544742,113.0
733,2022-10-17,09:00 - 09:59,00560,Station Bijlmer ArenA,4.94747867,52.3112575,37.0
734,2022-10-17,09:00 - 09:59,00561,Station Bijlmer ArenA,4.94741931,52.31132918,58.0
735,2022-10-17,09:00 - 09:59,00562,Station Bijlmer ArenA,4.94736012,52.31138289,22.0
736,2022-10-17,09:00 - 09:59,00568,Station Bijlmer ArenA,4.94762664,52.31112323,47.0
737,2022-10-17,09:00 - 09:59,00665,Station Weesp,5.04383463,52.31145059,23.0
738,2022-10-17,09:00 - 09:59,00985,Winkelcentrum,4.96422695,52.34186794,9.0
739,2022-10-17,09:00 - 09:59,01316,Station Noord,4.93325074,52.4020336,17.0
740,2022-10-17,09:00 - 09:59,01321,Station Noord,4.93304669,52.40187104,17.0
741,2022-10-17,09:00 - 09:59,01352,Oosterlengte,4.92206974,52.40611555,9.0
742,2022-10-17,09:00 - 09:59,01363,Buikslotermeerplein,4.93968364,52.39943369,13.0
743,2022-10-17,09:00 - 09:59,01364,Buikslotermeerplein,4.93887054,52.39992493,13.0
744,2022-10-17,09:00 - 09:59,01402,Floraweg,4.90614362,52.39899665,16.0
745,2022-10-17,09:00 - 09:59,01403,Distelweg,4.90268094,52.39451567,11.0
746,2022-10-17,09:00 - 09:59,01414,Olof Palmeplein,4.94012168,52.39679298,14.0
747,2022-10-17,09:00 - 09:59,02012,Koivistokade,4.87515397,52.3978781,289.0
748,2022-10-17,09:00 - 09:59,02020,Haparandaweg,4.87628003,52.39451258,45.0
749,2022-10-17,09:00 - 09:59,02064,Kabelweg,4.84827817,52.39205168,12.0
750,2022-10-17,09:00 - 09:59,02066,La Guardiaweg,4.84008244,52.39190625,17.0
751,2022-10-17,09:00 - 09:59,02103,Spaarndammerstraat,4.87754073,52.39219919,43.0
752,2022-10-17,09:00 - 09:59,02106,Assendelftstraat,4.8794384,52.38941217,15.0
753,2022-10-17,09:00 - 09:59,02113,Haarlemmerplein,4.88371739,52.38516129,24.0
754,2022-10-17,09:00 - 09:59,02114,Haarlemmerplein,4.88341252,52.38484542,43.0
755,2022-10-17,09:00 - 09:59,02115,Nw. Willemsstraat,4.88125942,52.38173549,12.0
756,2022-10-17,09:00 - 09:59,02126,Bloemgracht,4.87658402,52.37449829,11.0
757,2022-10-17,09:00 - 09:59,02130,Hugo de Grootplein,4.87259092,52.37439113,10.0
758,2022-10-17,09:00 - 09:59,02132,Fred. Hendrikplants.,4.87543499,52.37862768,30.0
759,2022-10-17,09:00 - 09:59,02142,V.d. Hoopstraat,4.87031312,52.38335094,13.0
760,2022-10-17,09:00 - 09:59,02145,Van Hallstraat,4.86990682,52.38418503,9.0
761,2022-10-17,09:00 - 09:59,02149,Van L.Stirumstraat,4.87489798,52.38443141,11.0
762,2022-10-17,09:00 - 09:59,02151,De Wittenkade,4.8769531,52.3832629,9.0
763,2022-10-17,09:00 - 09:59,02153,Nassaukade,4.87920791,52.38132226,9.0
764,2022-10-17,09:00 - 09:59,02155,Willem de Zwijgerlaan,4.86360306,52.3707117,15.0
765,2022-10-17,09:00 - 09:59,02156,Willem de Zwijgerlaan,4.86425293,52.37039101,29.0
766,2022-10-17,09:00 - 09:59,02157,Adm. de Ruijterweg,4.86009911,52.37148707,17.0
767,2022-10-17,09:00 - 09:59,02158,Adm. de Ruijterweg,4.86096777,52.3712932,14.0
768,2022-10-17,09:00 - 09:59,02159,Jan Evertsenstraat,4.85943408,52.37184362,11.0
769,2022-10-17,09:00 - 09:59,02170,Spaarndammerstraat,4.87723089,52.3923147,11.0
770,2022-10-17,09:00 - 09:59,02172,Molenwerf,4.84594416,52.38588446,14.0
771,2022-10-17,09:00 - 09:59,02177,Bos en Lommerweg,4.85516829,52.38102795,11.0
772,2022-10-17,09:00 - 09:59,02193,Marnixplein,4.8784449,52.37741832,53.0
773,2022-10-17,09:00 - 09:59,02222,Jan van Galenstraat,4.85874763,52.37399761,13.0
774,2022-10-17,09:00 - 09:59,02260,Contactweg,4.85432952,52.39215995,11.0
775,2022-10-17,09:00 - 09:59,02301,Fred. Hendrikplants.,4.87521585,52.37852787,17.0
776,2022-10-17,09:00 - 09:59,02302,Fred. Hendrikplants.,4.87549415,52.37859198,41.0
777,2022-10-17,09:00 - 09:59,02319,Solebaystraat,4.85540788,52.38431853,9.0
778,2022-10-17,09:00 - 09:59,02321,Van Hallstraat,4.86864429,52.38538386,32.0
779,2022-10-17,09:00 - 09:59,02361,Station Sloterdijk,4.83931858,52.3883346,93.0
780,2022-10-17,09:00 - 09:59,02365,Station Sloterdijk,4.83873236,52.38822404,37.0
781,2022-10-17,09:00 - 09:59,02366,Station Sloterdijk,4.83873347,52.38813416,32.0
782,2022-10-17,09:00 - 09:59,02367,Station Sloterdijk,4.83876429,52.38801747,38.0
783,2022-10-17,09:00 - 09:59,02370,Station Sloterdijk,4.83879745,52.38771204,9.0
784,2022-10-17,09:00 - 09:59,02378,Station Sloterdijk,4.83809796,52.38844579,44.0
785,2022-10-17,09:00 - 09:59,03022,Mercatorplein,4.8507031,52.37012367,11.0
786,2022-10-17,09:00 - 09:59,03023,Marco Polostraat,4.85520189,52.37088096,13.0
787,2022-10-17,09:00 - 09:59,03024,Marco Polostraat,4.85546532,52.37095405,13.0
788,2022-10-17,09:00 - 09:59,03028,Jan van Galenstraat,4.84921138,52.37204926,16.0
789,2022-10-17,09:00 - 09:59,03034,Erasmusgracht,4.84691117,52.37644278,15.0
790,2022-10-17,09:00 - 09:59,03052,Burg. Eliasstraat,4.82565009,52.38077481,22.0
791,2022-10-17,09:00 - 09:59,03060,Bos en Lommerplein,4.84718407,52.37815169,24.0
792,2022-10-17,09:00 - 09:59,03061,Bos en Lommerplein,4.8452353,52.37778328,63.0
793,2022-10-17,09:00 - 09:59,03076,Jan Tooropstraat,4.83810313,52.37142305,29.0
794,2022-10-17,09:00 - 09:59,03077,Jan Tooropstraat,4.83817288,52.37171997,11.0
795,2022-10-17,09:00 - 09:59,03087,Plein '40 - '45,4.82063128,52.38159575,19.0
796,2022-10-17,09:00 - 09:59,03099,Dr. H. Colijnstraat,4.80672448,52.37693566,11.0
797,2022-10-17,09:00 - 09:59,03129,Plein '40 - '45,4.82112672,52.38075328,34.0
798,2022-10-17,09:00 - 09:59,03135,Ookmeerweg,4.80431836,52.36558127,16.0
799,2022-10-17,09:00 - 09:59,03145,J. Cabeliaustraat,4.80409638,52.38246819,11.0
800,2022-10-17,09:00 - 09:59,03150,Mercatorplein,4.85011339,52.37031872,14.0
801,2022-10-17,09:00 - 09:59,03167,Bos en Lommerplein,4.84650668,52.37709704,32.0
802,2022-10-17,09:00 - 09:59,03168,Mercatorplein,4.85152392,52.37024423,16.0
803,2022-10-17,09:00 - 09:59,03176,Sloterpark,4.81890614,52.37295026,13.0
804,2022-10-17,09:00 - 09:59,03178,Mercatorplein,4.84991664,52.37080317,19.0
805,2022-10-17,09:00 - 09:59,03183,Jan Voermanstraat,4.84024245,52.36941071,11.0
806,2022-10-17,09:00 - 09:59,03197,W. Schoutenstraat,4.85238084,52.36737202,11.0
807,2022-10-17,09:00 - 09:59,03198,W. Schoutenstraat,4.85259061,52.36702245,13.0
808,2022-10-17,09:00 - 09:59,04008,Dijkgraafplein,4.78646982,52.35545267,10.0
809,2022-10-17,09:00 - 09:59,04009,Dijkgraafplein,4.78689401,52.35556268,11.0
810,2022-10-17,09:00 - 09:59,04012,Baden Powellweg,4.79137362,52.35646612,11.0
811,2022-10-17,09:00 - 09:59,04021,Osdorpplein West,4.80322869,52.35913166,32.0
812,2022-10-17,09:00 - 09:59,04050,Meer en Vaart,4.80994403,52.3563694,20.0
813,2022-10-17,09:00 - 09:59,04060,Derkinderenstraat,4.83972293,52.35796689,25.0
814,2022-10-17,09:00 - 09:59,04061,Derkinderenstraat,4.84014895,52.3579419,14.0
815,2022-10-17,09:00 - 09:59,04062,Johan Huizingalaan,4.82582327,52.35781191,15.0
816,2022-10-17,09:00 - 09:59,04063,Johan Huizingalaan,4.82626398,52.35778704,9.0
817,2022-10-17,09:00 - 09:59,04064,Osdorpplein Oost,4.80806527,52.35860717,23.0
818,2022-10-17,09:00 - 09:59,04065,Osdorpplein Oost,4.80773259,52.35935153,19.0
819,2022-10-17,09:00 - 09:59,04088,Louwesweg,4.8243642,52.34669608,12.0
820,2022-10-17,09:00 - 09:59,04102,Aalsmeerplein,4.84680029,52.34697142,11.0
821,2022-10-17,09:00 - 09:59,04112,Johan Huizingalaan,4.82742878,52.34923618,33.0
822,2022-10-17,09:00 - 09:59,04120,Delflandlaan,4.83969924,52.3515585,11.0
823,2022-10-17,09:00 - 09:59,04195,Station Lelylaan,4.83460082,52.35788018,52.0
824,2022-10-17,09:00 - 09:59,04196,Station Lelylaan,4.83382251,52.35790351,58.0
825,2022-10-17,09:00 - 09:59,04265,Schiphol Airport/Plaza,4.75941951,52.309591,20.0
826,2022-10-17,09:00 - 09:59,04267,Schiphol Airport/Plaza,4.76111192,52.30915956,9.0
827,2022-10-17,09:00 - 09:59,04279,Centrum Nieuw Sloten,4.81104244,52.3463893,11.0
828,2022-10-17,09:00 - 09:59,04340,Oudenaardeplantsoen,4.80416259,52.3450344,9.0
829,2022-10-17,09:00 - 09:59,04379,Knooppunt Schiphol Nrd,4.79342507,52.32272711,26.0
830,2022-10-17,09:00 - 09:59,04407,Ecuplein,4.7881767,52.34970912,11.0
831,2022-10-17,09:00 - 09:59,04409,Baden Powellweg,4.79441281,52.35092691,10.0
832,2022-10-17,09:00 - 09:59,04411,Hoekenes,4.8018343,52.35243785,22.0
833,2022-10-17,09:00 - 09:59,05011,Centraal Station,4.89921803,52.37810793,241.0
834,2022-10-17,09:00 - 09:59,05022,Centraal Station,4.90104337,52.37771998,303.0
835,2022-10-17,09:00 - 09:59,05031,Dam,4.89348394,52.37341055,66.0
836,2022-10-17,09:00 - 09:59,05032,Dam,4.8954936,52.37492885,102.0
837,2022-10-17,09:00 - 09:59,05035,Rokin,4.89210433,52.36939627,63.0
838,2022-10-17,09:00 - 09:59,05036,Rokin,4.89230478,52.36985548,69.0
839,2022-10-17,09:00 - 09:59,05046,Rembrandtplein,4.89627976,52.36625897,41.0
840,2022-10-17,09:00 - 09:59,05047,Rembrandtplein,4.89702882,52.36623511,54.0
841,2022-10-17,09:00 - 09:59,05052,Waterlooplein,4.90234715,52.36727262,11.0
842,2022-10-17,09:00 - 09:59,05056,Mr. Visserplein,4.90539389,52.36794116,11.0
843,2022-10-17,09:00 - 09:59,05058,Paleisstraat,4.89063746,52.37188871,109.0
844,2022-10-17,09:00 - 09:59,05060,Koningsplein,4.88894752,52.36807981,45.0
845,2022-10-17,09:00 - 09:59,05063,Paleisstraat,4.89064591,52.37244599,44.0
846,2022-10-17,09:00 - 09:59,05064,Koningsplein,4.8894961,52.36760577,91.0
847,2022-10-17,09:00 - 09:59,05073,Westermarkt,4.88453426,52.37400204,66.0
848,2022-10-17,09:00 - 09:59,05074,Westermarkt,4.8835495,52.37407874,120.0
849,2022-10-17,09:00 - 09:59,05077,Marnixstraat,4.87615428,52.37228546,35.0
850,2022-10-17,09:00 - 09:59,05079,Buiten Oranjestraat,4.88805879,52.38312149,15.0
851,2022-10-17,09:00 - 09:59,05080,Buiten Oranjestraat,4.88782167,52.38330923,62.0
852,2022-10-17,09:00 - 09:59,05081,Buiten Brouwersstraat,4.89157253,52.38150947,11.0
853,2022-10-17,09:00 - 09:59,05082,Buiten Brouwersstraat,4.89129168,52.38167008,19.0
854,2022-10-17,09:00 - 09:59,05090,Westerdoksdijk,4.89331977,52.38551629,17.0
855,2022-10-17,09:00 - 09:59,05092,Barentszplein,4.89160204,52.38938281,38.0
856,2022-10-17,09:00 - 09:59,05097,Centraal Station,4.90046323,52.37973084,129.0
857,2022-10-17,09:00 - 09:59,05101,Centraal Station,4.90081491,52.37980418,17.0
858,2022-10-17,09:00 - 09:59,05103,Centraal Station,4.9009941,52.37953529,88.0
859,2022-10-17,09:00 - 09:59,05105,Centraal Station,4.90187664,52.37941308,22.0
860,2022-10-17,09:00 - 09:59,05138,Mozes en A?ronstraat,4.891309,52.37355425,19.0
861,2022-10-17,09:00 - 09:59,05139,Paleisstraat,4.89124483,52.37272712,51.0
862,2022-10-17,09:00 - 09:59,05154,Marnixstraat,4.87536375,52.37207533,40.0
863,2022-10-17,09:00 - 09:59,06001,Surinameplein,4.85252231,52.35807034,42.0
864,2022-10-17,09:00 - 09:59,06002,Surinameplein,4.85090753,52.35807202,25.0
865,2022-10-17,09:00 - 09:59,06008,Surinameplein,4.85209576,52.35814031,22.0
866,2022-10-17,09:00 - 09:59,06015,Postjesweg,4.85316124,52.36352879,17.0
867,2022-10-17,09:00 - 09:59,06023,Bilderdijkstraat,4.87254032,52.36736251,20.0
868,2022-10-17,09:00 - 09:59,06024,Kinkerstraat,4.87230885,52.36706491,32.0
869,2022-10-17,09:00 - 09:59,06025,Kinkerstraat,4.87201094,52.36743211,48.0
870,2022-10-17,09:00 - 09:59,06027,Elandsgracht,4.87855189,52.36808953,41.0
871,2022-10-17,09:00 - 09:59,06028,Elandsgracht,4.87741694,52.36974738,32.0
872,2022-10-17,09:00 - 09:59,06029,Elandsgracht,4.87684368,52.36852258,12.0
873,2022-10-17,09:00 - 09:59,06030,Rozengracht,4.87590932,52.37187996,23.0
874,2022-10-17,09:00 - 09:59,06034,Bilderdijkstraat,4.87082347,52.37105798,24.0
875,2022-10-17,09:00 - 09:59,06037,Bilderdijkstraat,4.86985701,52.37082906,18.0
876,2022-10-17,09:00 - 09:59,06038,De Clercqstraat,4.87040279,52.37061574,17.0
877,2022-10-17,09:00 - 09:59,06043,Overtoom,4.87510145,52.36299659,25.0
878,2022-10-17,09:00 - 09:59,06044,Overtoom,4.87483191,52.3634538,13.0
879,2022-10-17,09:00 - 09:59,06045,1e Con. Huygensstraat,4.87399228,52.36242556,33.0
880,2022-10-17,09:00 - 09:59,06046,1e Con. Huygensstraat,4.87487082,52.36262709,62.0
881,2022-10-17,09:00 - 09:59,06048,J.P. Heijestraat,4.86585368,52.36037674,53.0
882,2022-10-17,09:00 - 09:59,06049,J.P. Heijestraat,4.86671778,52.36055131,39.0
883,2022-10-17,09:00 - 09:59,06053,Rijksmuseum,4.88762091,52.36071327,63.0
884,2022-10-17,09:00 - 09:59,06054,Rijksmuseum,4.88691223,52.36106979,112.0
885,2022-10-17,09:00 - 09:59,06061,Leidseplein,4.88339576,52.36305015,96.0
886,2022-10-17,09:00 - 09:59,06063,Leidseplein,4.88064547,52.36476406,126.0
887,2022-10-17,09:00 - 09:59,06067,Leidseplein,4.88301434,52.3643158,26.0
888,2022-10-17,09:00 - 09:59,06071,Prinsengracht,4.88464985,52.3650957,19.0
889,2022-10-17,09:00 - 09:59,06072,Prinsengracht,4.88428435,52.36495933,32.0
890,2022-10-17,09:00 - 09:59,06073,Keizersgracht,4.88666521,52.36604795,32.0
891,2022-10-17,09:00 - 09:59,06074,Keizersgracht,4.88624128,52.36588437,42.0
892,2022-10-17,09:00 - 09:59,06081,Rhijnvis Feithstraat,4.86039355,52.35905833,23.0
893,2022-10-17,09:00 - 09:59,06082,Rhijnvis Feithstraat,4.85967683,52.35883943,20.0
894,2022-10-17,09:00 - 09:59,06089,Leidseplein,4.88085541,52.36309324,150.0
895,2022-10-17,09:00 - 09:59,06115,Postjesweg,4.85319014,52.3647872,23.0
896,2022-10-17,09:00 - 09:59,07000,Concertgebouw,4.87980116,52.35642881,101.0
897,2022-10-17,09:00 - 09:59,07001,Concertgebouw,4.87950215,52.35690388,274.0
898,2022-10-17,09:00 - 09:59,07002,Van Baerlestraat,4.87836936,52.35839997,18.0
899,2022-10-17,09:00 - 09:59,07003,Van Baerlestraat,4.87808541,52.35883915,14.0
900,2022-10-17,09:00 - 09:59,07004,De Boelelaan/VU,4.86582598,52.33524681,11.0
901,2022-10-17,09:00 - 09:59,07015,Roelof Hartplein,4.88206971,52.353149,16.0
902,2022-10-17,09:00 - 09:59,07016,Roelof Hartplein,4.88286688,52.35274795,41.0
903,2022-10-17,09:00 - 09:59,07017,Roelof Hartplein,4.88206087,52.35263666,11.0
904,2022-10-17,09:00 - 09:59,07021,Kastelenstraat,4.87952475,52.32669607,9.0
905,2022-10-17,09:00 - 09:59,07035,Zeilstraat,4.85672894,52.35124059,26.0
906,2022-10-17,09:00 - 09:59,07046,Hoofddorpplein,4.85048172,52.35201234,12.0
907,2022-10-17,09:00 - 09:59,07048,Hoofddorpplein,4.85010578,52.35154327,17.0
908,2022-10-17,09:00 - 09:59,07049,Hoofddorpplein,4.84958188,52.35117239,19.0
909,2022-10-17,09:00 - 09:59,07050,Haarlemmermeerstation,4.85744749,52.34883508,13.0
910,2022-10-17,09:00 - 09:59,07066,Valeriusplein,4.86470709,52.35177939,30.0
911,2022-10-17,09:00 - 09:59,07069,Emmastraat,4.8696689,52.3529696,13.0
912,2022-10-17,09:00 - 09:59,07070,Emmastraat,4.87013616,52.35317836,24.0
913,2022-10-17,09:00 - 09:59,07083,Gerrit v.d. Veenstraat,4.87735929,52.34921014,19.0
914,2022-10-17,09:00 - 09:59,07084,Gerrit v.d. Veenstraat,4.87720177,52.34886793,18.0
915,2022-10-17,09:00 - 09:59,07087,Stadionweg,4.87688397,52.34714989,10.0
916,2022-10-17,09:00 - 09:59,07088,Stadionweg,4.87687497,52.34665553,10.0
917,2022-10-17,09:00 - 09:59,07097,Olympiaplein,4.86582821,52.3463018,15.0
918,2022-10-17,09:00 - 09:59,07098,Olympiaplein,4.86659057,52.34636807,12.0
919,2022-10-17,09:00 - 09:59,07108,Olympiaweg,4.8587373,52.34528169,11.0
920,2022-10-17,09:00 - 09:59,07120,Olympiaweg,4.8583413,52.34526195,15.0
921,2022-10-17,09:00 - 09:59,07121,Olympisch stadion,4.85696449,52.34380875,11.0
922,2022-10-17,09:00 - 09:59,07133,De Boelelaan,4.86754589,52.33496677,22.0
923,2022-10-17,09:00 - 09:59,07186,Pr. Irenestraat,4.87677483,52.34260161,11.0
924,2022-10-17,09:00 - 09:59,07190,Station Zuid,4.87353629,52.34094284,15.0
925,2022-10-17,09:00 - 09:59,07193,Station Zuid,4.87250968,52.34089344,33.0
926,2022-10-17,09:00 - 09:59,07202,Olympisch stadion,4.8568442,52.34405088,16.0
927,2022-10-17,09:00 - 09:59,07207,IJsbaanpad,4.85756146,52.34051291,9.0
928,2022-10-17,09:00 - 09:59,07263,Station RAI,4.89016586,52.33665478,11.0
929,2022-10-17,09:00 - 09:59,07266,Station Zuid,4.87252654,52.34070477,18.0
930,2022-10-17,09:00 - 09:59,07268,Station Zuid,4.87416869,52.34081975,31.0
931,2022-10-17,09:00 - 09:59,07269,Station Zuid,4.8732882,52.34082492,71.0
932,2022-10-17,09:00 - 09:59,07270,Parnassusweg,4.86874218,52.33806382,55.0
933,2022-10-17,09:00 - 09:59,07271,Parnassusweg,4.86866745,52.33818033,19.0
934,2022-10-17,09:00 - 09:59,07294,Station Zuid,4.87377387,52.3407012,39.0
935,2022-10-17,09:00 - 09:59,07303,VU medisch centrum,4.86097062,52.33515342,71.0
936,2022-10-17,09:00 - 09:59,07310,Apollolaan,4.88211179,52.34816097,18.0
937,2022-10-17,09:00 - 09:59,07325,Museumplein,4.88046549,52.3586696,176.0
938,2022-10-17,09:00 - 09:59,07326,Museumplein,4.88178292,52.3589988,72.0
939,2022-10-17,09:00 - 09:59,07391,Kronenburg,4.87070592,52.31556694,32.0
940,2022-10-17,09:00 - 09:59,07419,Van Boshuizenstraat,4.86896941,52.32487971,22.0
941,2022-10-17,09:00 - 09:59,07423,Uilenstede,4.86910951,52.32167168,16.0
942,2022-10-17,09:00 - 09:59,07439,Oranjebaan,4.87179001,52.30302465,19.0
943,2022-10-17,09:00 - 09:59,07442,Zonnestein,4.87236664,52.31146674,15.0
944,2022-10-17,09:00 - 09:59,07445,Amstelveen Stadshart,4.86751502,52.30124433,45.0
945,2022-10-17,09:00 - 09:59,07448,A.J. Ernststraat,4.86887597,52.33288743,40.0
946,2022-10-17,09:00 - 09:59,07449,A.J. Ernststraat,4.86879476,52.33230287,43.0
947,2022-10-17,09:00 - 09:59,08007,Bob Haarmslaan,4.96921237,52.36876786,11.0
948,2022-10-17,09:00 - 09:59,08013,Azartplein,4.93734445,52.37656023,20.0
949,2022-10-17,09:00 - 09:59,08014,Azartplein,4.9373564,52.37682991,21.0
950,2022-10-17,09:00 - 09:59,08016,Wittenburgergracht,4.919694,52.36942754,19.0
951,2022-10-17,09:00 - 09:59,08027,Kadijksplein,4.91357159,52.37075136,14.0
952,2022-10-17,09:00 - 09:59,08034,P. Hendrikkade (uitstaphalte),4.90238928,52.37685369,26.0
953,2022-10-17,09:00 - 09:59,08041,Kattenburgerstraat,4.91934651,52.37313808,15.0
954,2022-10-17,09:00 - 09:59,08043,Artis,4.91141423,52.36653646,33.0
955,2022-10-17,09:00 - 09:59,08051,K. 's-Gravesandestr.,4.9136612,52.3623572,43.0
956,2022-10-17,09:00 - 09:59,08053,Weesperplein,4.9065569,52.36088154,26.0
957,2022-10-17,09:00 - 09:59,08054,Weesperplein,4.90941338,52.36145933,88.0
958,2022-10-17,09:00 - 09:59,08057,Frederiksplein,4.90024241,52.3597143,96.0
959,2022-10-17,09:00 - 09:59,08058,Veelaan,4.93961588,52.36830916,19.0
960,2022-10-17,09:00 - 09:59,08059,Veelaan,4.93944523,52.36776026,17.0
961,2022-10-17,09:00 - 09:59,08066,Frederiksplein,4.89751569,52.3593705,29.0
962,2022-10-17,09:00 - 09:59,08071,Muntplein,4.89312361,52.36620989,34.0
963,2022-10-17,09:00 - 09:59,08072,Vijzelgracht,4.89159781,52.35953462,71.0
964,2022-10-17,09:00 - 09:59,08073,Vijzelgracht,4.89227386,52.35946554,40.0
965,2022-10-17,09:00 - 09:59,08076,Vijzelgracht,4.89103406,52.36006253,10.0
966,2022-10-17,09:00 - 09:59,08086,Muntplein,4.89308297,52.36590414,33.0
967,2022-10-17,09:00 - 09:59,08094,Wijttenbachstraat,4.92547668,52.35979743,11.0
968,2022-10-17,09:00 - 09:59,08095,Alexanderplein,4.91969863,52.36341478,25.0
969,2022-10-17,09:00 - 09:59,08096,Alexanderplein,4.91931589,52.36351213,11.0
970,2022-10-17,09:00 - 09:59,08098,1e v.Swindenstraat,4.92386708,52.36210997,10.0
971,2022-10-17,09:00 - 09:59,08114,Javaplein,4.93955537,52.36412066,12.0
972,2022-10-17,09:00 - 09:59,08119,Insulindeweg,4.94765323,52.36476217,9.0
973,2022-10-17,09:00 - 09:59,08120,Insulindeweg,4.94763926,52.36469021,31.0
974,2022-10-17,09:00 - 09:59,08129,Molukkenstraat,4.93861286,52.36150167,25.0
975,2022-10-17,09:00 - 09:59,08176,K. 's-Gravesandestr.,4.91417416,52.36244014,33.0
976,2022-10-17,09:00 - 09:59,08183,Het Funen,4.9316077,52.36746073,11.0
977,2022-10-17,09:00 - 09:59,08190,Molukkenstraat,4.93934614,52.36157635,17.0
978,2022-10-17,09:00 - 09:59,08195,Oostenburgergracht,4.92452709,52.36780177,13.0
979,2022-10-17,09:00 - 09:59,08229,Tosaristraat,4.92309805,52.37948916,11.0
980,2022-10-17,09:00 - 09:59,08233,C. van Eesterenlaan,4.93812487,52.37345346,11.0
981,2022-10-17,09:00 - 09:59,08234,Muziekgeb. Bimhuis,4.91316454,52.37723884,28.0
982,2022-10-17,09:00 - 09:59,08235,Muziekgeb. Bimhuis,4.9129002,52.37723779,57.0
983,2022-10-17,09:00 - 09:59,08236,Kattenburgerstraat,4.92203232,52.37607865,10.0
984,2022-10-17,09:00 - 09:59,08237,Kattenburgerstraat,4.92126795,52.37614755,74.0
985,2022-10-17,09:00 - 09:59,08238,Rietlandpark,4.93350159,52.37322013,25.0
986,2022-10-17,09:00 - 09:59,08239,Rietlandpark,4.93413567,52.37296191,89.0
987,2022-10-17,09:00 - 09:59,08241,Zuiderzeeweg,4.96185517,52.37193228,16.0
988,2022-10-17,09:00 - 09:59,08244,Steigereiland,4.98083725,52.36280456,13.0
989,2022-10-17,09:00 - 09:59,08245,Steigereiland,4.98012952,52.36313467,55.0
990,2022-10-17,09:00 - 09:59,08247,Vennepluimstraat,4.99057242,52.35769662,14.0
991,2022-10-17,09:00 - 09:59,08249,Diemerparklaan,4.99499716,52.35532962,10.0
992,2022-10-17,09:00 - 09:59,08251,Lumi?restraat,4.99942127,52.35298044,9.0
993,2022-10-17,09:00 - 09:59,08255,Hoogte Kadijk,4.92483038,52.36687722,16.0
994,2022-10-17,09:00 - 09:59,08257,1e Coehoornstraat,4.92618328,52.36808685,17.0
995,2022-10-17,09:00 - 09:59,08259,1e Leeghwaterstraat,4.93004964,52.37047459,65.0
996,2022-10-17,09:00 - 09:59,08261,Rietlandpark,4.93481067,52.37300943,21.0
997,2022-10-17,09:00 - 09:59,08262,IJburg,5.00486802,52.35112872,34.0
998,2022-10-17,09:00 - 09:59,08281,Vennepluimstraat,4.99139941,52.35714215,9.0
999,2022-10-17,09:00 - 09:59,08293,Zeeburgerdijk,4.93942159,52.36573794,18.0
1000,2022-10-17,09:00 - 09:59,08300,P.Oosterhuisstraat,5.00734025,52.35208937,10.0
1001,2022-10-17,09:00 - 09:59,09003,Dintelstraat,4.89289498,52.34192405,9.0
1002,2022-10-17,09:00 - 09:59,09013,Amstelstation,4.91790223,52.34725673,32.0
1003,2022-10-17,09:00 - 09:59,09015,Amstelstation,4.91940405,52.34679531,14.0
1004,2022-10-17,09:00 - 09:59,09026,Amstelstation,4.91874992,52.34619953,21.0
1005,2022-10-17,09:00 - 09:59,09028,Amstelstation,4.91867673,52.34618127,11.0
1006,2022-10-17,09:00 - 09:59,09049,Victorieplein,4.90570139,52.34637186,16.0
1007,2022-10-17,09:00 - 09:59,09051,Victorieplein,4.90650793,52.34642907,15.0
1008,2022-10-17,09:00 - 09:59,09058,Van Hilligaertstraat,4.89144744,52.34934189,15.0
1009,2022-10-17,09:00 - 09:59,09060,Waalstraat,4.90103893,52.34462715,11.0
1010,2022-10-17,09:00 - 09:59,09070,Scheldestraat,4.88952142,52.34702395,9.0
1011,2022-10-17,09:00 - 09:59,09096,Van Woustraat,4.90163035,52.3549565,13.0
1012,2022-10-17,09:00 - 09:59,09097,Van Woustraat,4.9008407,52.35468363,24.0
1013,2022-10-17,09:00 - 09:59,09109,2e v.d.Helststraat,4.8948817,52.35331982,11.0
1014,2022-10-17,09:00 - 09:59,09111,De Pijp,4.89073444,52.35272728,33.0
1015,2022-10-17,09:00 - 09:59,09114,De Pijp,4.88948829,52.35259622,30.0
1016,2022-10-17,09:00 - 09:59,09122,Marie Heinekenplein,4.89065823,52.35691525,9.0
1017,2022-10-17,09:00 - 09:59,09139,Amsteldijk,4.91124086,52.34711329,25.0
1018,2022-10-17,09:00 - 09:59,09140,Amsteldijk,4.91055179,52.3470476,15.0
1019,2022-10-17,09:00 - 09:59,09176,James Wattstraat,4.92329155,52.35116068,9.0
1020,2022-10-17,09:00 - 09:59,ASA,Amstelstation,4.91751426,52.34647326,492.0
1021,2022-10-17,09:00 - 09:59,ASW,Amstelveenseweg,4.85798324,52.33836671,477.0
1022,2022-10-17,09:00 - 09:59,BLW,Bullewijk,4.95233581,52.30642205,222.0
1023,2022-10-17,09:00 - 09:59,BMR,Station Bijlmer ArenA,4.94713474,52.3119303,566.0
1024,2022-10-17,09:00 - 09:59,CLL,Station Lelylaan,4.83426589,52.35766291,139.0
1025,2022-10-17,09:00 - 09:59,CS,Centraal Station,4.9007815,52.37749421,1496.0
1026,2022-10-17,09:00 - 09:59,DMZ,Station Diemen-Zuid,4.95713273,52.33042795,82.0
1027,2022-10-17,09:00 - 09:59,DPP,De Pijp,4.89101069,52.35296212,331.0
1028,2022-10-17,09:00 - 09:59,DVD,Station Duivendrecht,4.93678429,52.3232519,95.0
1029,2022-10-17,09:00 - 09:59,EPP,Europaplein,4.8913843,52.34185482,194.0
1030,2022-10-17,09:00 - 09:59,GN,Gein,4.98952268,52.29627089,51.0
1031,2022-10-17,09:00 - 09:59,GPP,Gaasperplas,4.98468551,52.31080575,36.0
1032,2022-10-17,09:00 - 09:59,GZH,Station Ganzenhoef,4.97323379,52.32331315,50.0
1033,2022-10-17,09:00 - 09:59,HDS,Heemstedestraat,4.83421208,52.3525576,89.0
1034,2022-10-17,09:00 - 09:59,HLD,Station Holendrecht,4.96021904,52.29780451,484.0
1035,2022-10-17,09:00 - 09:59,HVW,Henk Sneevlietweg,4.83439318,52.34626699,393.0
1036,2022-10-17,09:00 - 09:59,ITW,Isolatorweg,4.85013475,52.39523277,144.0
1037,2022-10-17,09:00 - 09:59,JLS,Jan v.Galenstraat,4.83492461,52.37196551,80.0
1038,2022-10-17,09:00 - 09:59,KEN,Kraaienneststation,4.9796345,52.31632492,59.0
1039,2022-10-17,09:00 - 09:59,MDW,Van der Madeweg,4.93048657,52.32945629,167.0
1040,2022-10-17,09:00 - 09:59,ND,Noord,4.93123182,52.40117202,218.0
1041,2022-10-17,09:00 - 09:59,NDP,Noorderpark,4.91789115,52.38855518,244.0
1042,2022-10-17,09:00 - 09:59,NMT,Nieuwmarkt,4.90123885,52.37194169,274.0
1043,2022-10-17,09:00 - 09:59,OAS,Overamstel,4.91815361,52.33179879,265.0
1044,2022-10-17,09:00 - 09:59,PJW,Postjesweg,4.83385543,52.36468044,43.0
1045,2022-10-17,09:00 - 09:59,RAI,Station RAI,4.88982004,52.33739931,311.0
1046,2022-10-17,09:00 - 09:59,RGB,Reigersbos,4.97473728,52.29566301,59.0
1047,2022-10-17,09:00 - 09:59,RKN,Rokin,4.89229651,52.36928023,899.0
1048,2022-10-17,09:00 - 09:59,SLW,Spaklerweg,4.9208564,52.3398625,137.0
1049,2022-10-17,09:00 - 09:59,STD,Station Sloterdijk,4.83878389,52.38880848,313.0
1050,2022-10-17,09:00 - 09:59,SVT,Strandvliet,4.9415282,52.31825469,63.0
1051,2022-10-17,09:00 - 09:59,VLN,Burg.de Vlugtlaan,4.83809109,52.37951196,59.0
1052,2022-10-17,09:00 - 09:59,VPD,Venserpolder,4.94665009,52.32679428,75.0
1053,2022-10-17,09:00 - 09:59,VSW,Verrijn Stuartweg,4.96693669,52.32844093,31.0
1054,2022-10-17,09:00 - 09:59,VZG,Vijzelgracht,4.8907287,52.35980061,695.0
1055,2022-10-17,09:00 - 09:59,WBS,Wibautstraat,4.91202993,52.35428867,181.0
1056,2022-10-17,09:00 - 09:59,WLP,Waterlooplein,4.90298171,52.36697862,705.0
1057,2022-10-17,09:00 - 09:59,WPP,Weesperplein,4.90787469,52.36120146,987.0
1058,2022-10-17,09:00 - 09:59,WTC,Station Zuid,4.87509853,52.33908015,1519.0
1059,2022-10-17,10:00 - 10:59,,Overig,,,2299.0
1060,2022-10-17,10:00 - 10:59,[[ Onb,[[ Onbekend ]],0.0,0.0,1714.0
1061,2022-10-17,10:00 - 10:59,00005,Muiderpoortstation,4.93280219,52.36121887,15.0
1062,2022-10-17,10:00 - 10:59,00007,Muiderpoortstation,4.93356602,52.36117686,22.0
1063,2022-10-17,10:00 - 10:59,00008,Dapperstraat,4.92977913,52.36110836,44.0
1064,2022-10-17,10:00 - 10:59,00010,Dapperstraat,4.92891486,52.36092527,22.0
1065,2022-10-17,10:00 - 10:59,00017,Linnaeusstraat,4.92573745,52.36013099,16.0
1066,2022-10-17,10:00 - 10:59,00020,Beukenweg,4.91674979,52.35906203,24.0
1067,2022-10-17,10:00 - 10:59,00021,Beukenweg,4.91721293,52.35829991,41.0
1068,2022-10-17,10:00 - 10:59,00023,Beukenplein,4.91809259,52.35701816,17.0
1069,2022-10-17,10:00 - 10:59,00029,Oostpoort,4.92719316,52.35707185,17.0
1070,2022-10-17,10:00 - 10:59,00030,Oostpoort,4.92694026,52.35739442,24.0
1071,2022-10-17,10:00 - 10:59,00059,Radioweg,4.9394583,52.353371,10.0
1072,2022-10-17,10:00 - 10:59,00070,Kruislaan,4.9399391,52.34789929,9.0
1073,2022-10-17,10:00 - 10:59,00074,Brinkstraat,4.94797289,52.34285131,12.0
1074,2022-10-17,10:00 - 10:59,00141,Kraaienneststation,4.9786839,52.31603403,16.0
1075,2022-10-17,10:00 - 10:59,00152,Florijn,4.95859163,52.31758973,13.0
1076,2022-10-17,10:00 - 10:59,00197,Annie Romeinplein,4.97162041,52.32173463,23.0
1077,2022-10-17,10:00 - 10:59,00238,Anton de Komplein,4.95413359,52.31603659,32.0
1078,2022-10-17,10:00 - 10:59,00239,Anton de Komplein,4.95597669,52.31652866,19.0
1079,2022-10-17,10:00 - 10:59,00251,Station Diemen Zuid,4.95681979,52.33093012,10.0
1080,2022-10-17,10:00 - 10:59,00432,Diemerbrug,4.96142958,52.33824484,13.0
1081,2022-10-17,10:00 - 10:59,00444,Linnaeusstraat,4.92490296,52.35991203,16.0
1082,2022-10-17,10:00 - 10:59,00453,Diemen Sniep,4.96964866,52.33644962,10.0
1083,2022-10-17,10:00 - 10:59,00491,Science Park Aer,4.95218495,52.35478458,187.0
1084,2022-10-17,10:00 - 10:59,00494,Science Park Aqua,4.95416922,52.35601419,19.0
1085,2022-10-17,10:00 - 10:59,00505,Arent Krijtsstraat,4.95469645,52.33956859,9.0
1086,2022-10-17,10:00 - 10:59,00506,Science Park Terra,4.95831008,52.35434856,26.0
1087,2022-10-17,10:00 - 10:59,00507,Science Park Terra,4.95772497,52.35413972,11.0
1088,2022-10-17,10:00 - 10:59,00518,Foppingadreef,4.94967889,52.31268573,9.0
1089,2022-10-17,10:00 - 10:59,00538,Station Science Park,4.94808393,52.35239669,12.0
1090,2022-10-17,10:00 - 10:59,00553,Kraaienneststation,4.98073727,52.31601414,17.0
1091,2022-10-17,10:00 - 10:59,00554,Science Park,4.95088162,52.3544742,48.0
1092,2022-10-17,10:00 - 10:59,00560,Station Bijlmer ArenA,4.94747867,52.3112575,16.0
1093,2022-10-17,10:00 - 10:59,00561,Station Bijlmer ArenA,4.94741931,52.31132918,35.0
1094,2022-10-17,10:00 - 10:59,00562,Station Bijlmer ArenA,4.94736012,52.31138289,20.0
1095,2022-10-17,10:00 - 10:59,00568,Station Bijlmer ArenA,4.94762664,52.31112323,10.0
1096,2022-10-17,10:00 - 10:59,00976,Klipperweg,4.98288824,52.34878179,9.0
1097,2022-10-17,10:00 - 10:59,00985,Winkelcentrum,4.96422695,52.34186794,18.0
1098,2022-10-17,10:00 - 10:59,01076,Waterlandplein,4.95247364,52.39274059,11.0
1099,2022-10-17,10:00 - 10:59,01321,Station Noord,4.93304669,52.40187104,22.0
1100,2022-10-17,10:00 - 10:59,01402,Floraweg,4.90614362,52.39899665,16.0
1101,2022-10-17,10:00 - 10:59,01414,Olof Palmeplein,4.94012168,52.39679298,15.0
1102,2022-10-17,10:00 - 10:59,01422,Noorderpark,4.91956087,52.38902016,10.0
1103,2022-10-17,10:00 - 10:59,01443,Volendammerweg,4.95697086,52.39255928,14.0
1104,2022-10-17,10:00 - 10:59,02012,Koivistokade,4.87515397,52.3978781,46.0
1105,2022-10-17,10:00 - 10:59,02066,La Guardiaweg,4.84008244,52.39190625,11.0
1106,2022-10-17,10:00 - 10:59,02103,Spaarndammerstraat,4.87754073,52.39219919,39.0
1107,2022-10-17,10:00 - 10:59,02106,Assendelftstraat,4.8794384,52.38941217,10.0
1108,2022-10-17,10:00 - 10:59,02113,Haarlemmerplein,4.88371739,52.38516129,22.0
1109,2022-10-17,10:00 - 10:59,02114,Haarlemmerplein,4.88341252,52.38484542,40.0
1110,2022-10-17,10:00 - 10:59,02115,Nw. Willemsstraat,4.88125942,52.38173549,14.0
1111,2022-10-17,10:00 - 10:59,02128,G. v.Ledenberchstraat,4.87062828,52.37520945,9.0
1112,2022-10-17,10:00 - 10:59,02132,Fred. Hendrikplants.,4.87543499,52.37862768,22.0
1113,2022-10-17,10:00 - 10:59,02142,V.d. Hoopstraat,4.87031312,52.38335094,27.0
1114,2022-10-17,10:00 - 10:59,02149,Van L.Stirumstraat,4.87489798,52.38443141,30.0
1115,2022-10-17,10:00 - 10:59,02151,De Wittenkade,4.8769531,52.3832629,14.0
1116,2022-10-17,10:00 - 10:59,02153,Nassaukade,4.87920791,52.38132226,27.0
1117,2022-10-17,10:00 - 10:59,02154,De Clercqstraat,4.87052824,52.3711915,9.0
1118,2022-10-17,10:00 - 10:59,02155,Willem de Zwijgerlaan,4.86360306,52.3707117,9.0
1119,2022-10-17,10:00 - 10:59,02156,Willem de Zwijgerlaan,4.86425293,52.37039101,22.0
1120,2022-10-17,10:00 - 10:59,02157,Adm. de Ruijterweg,4.86009911,52.37148707,25.0
1121,2022-10-17,10:00 - 10:59,02158,Adm. de Ruijterweg,4.86096777,52.3712932,22.0
1122,2022-10-17,10:00 - 10:59,02167,Bos en Lommerweg,4.85380049,52.38118358,11.0
1123,2022-10-17,10:00 - 10:59,02171,Wiltzanghlaan,4.85060722,52.38290378,10.0
1124,2022-10-17,10:00 - 10:59,02177,Bos en Lommerweg,4.85516829,52.38102795,11.0
1125,2022-10-17,10:00 - 10:59,02193,Marnixplein,4.8784449,52.37741832,67.0
1126,2022-10-17,10:00 - 10:59,02222,Jan van Galenstraat,4.85874763,52.37399761,9.0
1127,2022-10-17,10:00 - 10:59,02301,Fred. Hendrikplants.,4.87521585,52.37852787,31.0
1128,2022-10-17,10:00 - 10:59,02302,Fred. Hendrikplants.,4.87549415,52.37859198,21.0
1129,2022-10-17,10:00 - 10:59,02317,Naritaweg,4.82102069,52.387907,9.0
1130,2022-10-17,10:00 - 10:59,02320,Van Hallstraat,4.86782303,52.3852724,17.0
1131,2022-10-17,10:00 - 10:59,02321,Van Hallstraat,4.86864429,52.38538386,48.0
1132,2022-10-17,10:00 - 10:59,02361,Station Sloterdijk,4.83931858,52.3883346,46.0
1133,2022-10-17,10:00 - 10:59,02365,Station Sloterdijk,4.83873236,52.38822404,25.0
1134,2022-10-17,10:00 - 10:59,02367,Station Sloterdijk,4.83876429,52.38801747,11.0
1135,2022-10-17,10:00 - 10:59,02368,Station Sloterdijk,4.83877999,52.38793665,15.0
1136,2022-10-17,10:00 - 10:59,02378,Station Sloterdijk,4.83809796,52.38844579,47.0
1137,2022-10-17,10:00 - 10:59,03022,Mercatorplein,4.8507031,52.37012367,18.0
1138,2022-10-17,10:00 - 10:59,03023,Marco Polostraat,4.85520189,52.37088096,12.0
1139,2022-10-17,10:00 - 10:59,03024,Marco Polostraat,4.85546532,52.37095405,11.0
1140,2022-10-17,10:00 - 10:59,03025,Jan v.Galenstraat,4.84854861,52.37342137,15.0
1141,2022-10-17,10:00 - 10:59,03028,Jan van Galenstraat,4.84921138,52.37204926,9.0
1142,2022-10-17,10:00 - 10:59,03034,Erasmusgracht,4.84691117,52.37644278,21.0
1143,2022-10-17,10:00 - 10:59,03055,Burg. Fockstraat,4.8310804,52.37991964,9.0
1144,2022-10-17,10:00 - 10:59,03057,Anth. Moddermanstraat,4.81474778,52.38339197,9.0
1145,2022-10-17,10:00 - 10:59,03061,Bos en Lommerplein,4.8452353,52.37778328,41.0
1146,2022-10-17,10:00 - 10:59,03076,Jan Tooropstraat,4.83810313,52.37142305,20.0
1147,2022-10-17,10:00 - 10:59,03087,Plein '40 - '45,4.82063128,52.38159575,31.0
1148,2022-10-17,10:00 - 10:59,03090,Slotermeerlaan,4.81728149,52.37596234,13.0
1149,2022-10-17,10:00 - 10:59,03101,Lambertus Zijlplein,4.80300456,52.37726788,15.0
1150,2022-10-17,10:00 - 10:59,03117,Sam van Houtenstraat,4.7979043,52.37868964,27.0
1151,2022-10-17,10:00 - 10:59,03121,Aalbersestraat,4.79774249,52.38202329,10.0
1152,2022-10-17,10:00 - 10:59,03129,Plein '40 - '45,4.82112672,52.38075328,31.0
1153,2022-10-17,10:00 - 10:59,03130,Plein '40 - '45,4.82267774,52.38121007,9.0
1154,2022-10-17,10:00 - 10:59,03135,Ookmeerweg,4.80431836,52.36558127,11.0
1155,2022-10-17,10:00 - 10:59,03145,J. Cabeliaustraat,4.80409638,52.38246819,18.0
1156,2022-10-17,10:00 - 10:59,03150,Mercatorplein,4.85011339,52.37031872,18.0
1157,2022-10-17,10:00 - 10:59,03157,Lambertus Zijlplein,4.80338637,52.37726977,9.0
1158,2022-10-17,10:00 - 10:59,03162,Burg.de Vlugtlaan,4.83721641,52.37898661,12.0
1159,2022-10-17,10:00 - 10:59,03167,Bos en Lommerplein,4.84650668,52.37709704,16.0
1160,2022-10-17,10:00 - 10:59,03168,Mercatorplein,4.85152392,52.37024423,17.0
1161,2022-10-17,10:00 - 10:59,03178,Mercatorplein,4.84991664,52.37080317,25.0
1162,2022-10-17,10:00 - 10:59,03183,Jan Voermanstraat,4.84024245,52.36941071,17.0
1163,2022-10-17,10:00 - 10:59,03184,Jan Voermanstraat,4.83960999,52.36949767,13.0
1164,2022-10-17,10:00 - 10:59,04008,Dijkgraafplein,4.78646982,52.35545267,11.0
1165,2022-10-17,10:00 - 10:59,04012,Baden Powellweg,4.79137362,52.35646612,19.0
1166,2022-10-17,10:00 - 10:59,04016,Hoekenes,4.79854723,52.3579131,20.0
1167,2022-10-17,10:00 - 10:59,04021,Osdorpplein West,4.80322869,52.35913166,34.0
1168,2022-10-17,10:00 - 10:59,04023,Osdorpplein Noord,4.80526797,52.36034607,11.0
1169,2022-10-17,10:00 - 10:59,04050,Meer en Vaart,4.80994403,52.3563694,13.0
1170,2022-10-17,10:00 - 10:59,04060,Derkinderenstraat,4.83972293,52.35796689,24.0
1171,2022-10-17,10:00 - 10:59,04061,Derkinderenstraat,4.84014895,52.3579419,12.0
1172,2022-10-17,10:00 - 10:59,04062,Johan Huizingalaan,4.82582327,52.35781191,11.0
1173,2022-10-17,10:00 - 10:59,04064,Osdorpplein Oost,4.80806527,52.35860717,15.0
1174,2022-10-17,10:00 - 10:59,04065,Osdorpplein Oost,4.80773259,52.35935153,42.0
1175,2022-10-17,10:00 - 10:59,04088,Louwesweg,4.8243642,52.34669608,18.0
1176,2022-10-17,10:00 - 10:59,04112,Johan Huizingalaan,4.82742878,52.34923618,31.0
1177,2022-10-17,10:00 - 10:59,04120,Delflandlaan,4.83969924,52.3515585,11.0
1178,2022-10-17,10:00 - 10:59,04140,Sierplein,4.8273263,52.35503282,9.0
1179,2022-10-17,10:00 - 10:59,04195,Station Lelylaan,4.83460082,52.35788018,29.0
1180,2022-10-17,10:00 - 10:59,04196,Station Lelylaan,4.83382251,52.35790351,45.0
1181,2022-10-17,10:00 - 10:59,04265,Schiphol Airport/Plaza,4.75941951,52.309591,18.0
1182,2022-10-17,10:00 - 10:59,04277,Laan v.Vlaanderen,4.8164272,52.3464873,9.0
1183,2022-10-17,10:00 - 10:59,04279,Centrum Nieuw Sloten,4.81104244,52.3463893,11.0
1184,2022-10-17,10:00 - 10:59,04379,Knooppunt Schiphol Nrd,4.79342507,52.32272711,16.0
1185,2022-10-17,10:00 - 10:59,04403,Pilatus,4.77696371,52.35289644,13.0
1186,2022-10-17,10:00 - 10:59,04405,Inaristraat,4.78342793,52.35030515,10.0
1187,2022-10-17,10:00 - 10:59,04409,Baden Powellweg,4.79441281,52.35092691,10.0
1188,2022-10-17,10:00 - 10:59,04411,Hoekenes,4.8018343,52.35243785,14.0
1189,2022-10-17,10:00 - 10:59,05011,Centraal Station,4.89921803,52.37810793,237.0
1190,2022-10-17,10:00 - 10:59,05022,Centraal Station,4.90104337,52.37771998,378.0
1191,2022-10-17,10:00 - 10:59,05031,Dam,4.89348394,52.37341055,129.0
1192,2022-10-17,10:00 - 10:59,05032,Dam,4.8954936,52.37492885,161.0
1193,2022-10-17,10:00 - 10:59,05035,Rokin,4.89210433,52.36939627,34.0
1194,2022-10-17,10:00 - 10:59,05036,Rokin,4.89230478,52.36985548,122.0
1195,2022-10-17,10:00 - 10:59,05046,Rembrandtplein,4.89627976,52.36625897,38.0
1196,2022-10-17,10:00 - 10:59,05047,Rembrandtplein,4.89702882,52.36623511,37.0
1197,2022-10-17,10:00 - 10:59,05052,Waterlooplein,4.90234715,52.36727262,9.0
1198,2022-10-17,10:00 - 10:59,05056,Mr. Visserplein,4.90539389,52.36794116,9.0
1199,2022-10-17,10:00 - 10:59,05058,Paleisstraat,4.89063746,52.37188871,142.0
1200,2022-10-17,10:00 - 10:59,05060,Koningsplein,4.88894752,52.36807981,85.0
1201,2022-10-17,10:00 - 10:59,05063,Paleisstraat,4.89064591,52.37244599,59.0
1202,2022-10-17,10:00 - 10:59,05064,Koningsplein,4.8894961,52.36760577,64.0
1203,2022-10-17,10:00 - 10:59,05073,Westermarkt,4.88453426,52.37400204,62.0
1204,2022-10-17,10:00 - 10:59,05074,Westermarkt,4.8835495,52.37407874,65.0
1205,2022-10-17,10:00 - 10:59,05077,Marnixstraat,4.87615428,52.37228546,31.0
1206,2022-10-17,10:00 - 10:59,05079,Buiten Oranjestraat,4.88805879,52.38312149,25.0
1207,2022-10-17,10:00 - 10:59,05080,Buiten Oranjestraat,4.88782167,52.38330923,17.0
1208,2022-10-17,10:00 - 10:59,05081,Buiten Brouwersstraat,4.89157253,52.38150947,19.0
1209,2022-10-17,10:00 - 10:59,05082,Buiten Brouwersstraat,4.89129168,52.38167008,21.0
1210,2022-10-17,10:00 - 10:59,05097,Centraal Station,4.90046323,52.37973084,139.0
1211,2022-10-17,10:00 - 10:59,05101,Centraal Station,4.90081491,52.37980418,76.0
1212,2022-10-17,10:00 - 10:59,05103,Centraal Station,4.9009941,52.37953529,52.0
1213,2022-10-17,10:00 - 10:59,05105,Centraal Station,4.90187664,52.37941308,20.0
1214,2022-10-17,10:00 - 10:59,05138,Mozes en A?ronstraat,4.891309,52.37355425,31.0
1215,2022-10-17,10:00 - 10:59,05139,Paleisstraat,4.89124483,52.37272712,74.0
1216,2022-10-17,10:00 - 10:59,05154,Marnixstraat,4.87536375,52.37207533,35.0
1217,2022-10-17,10:00 - 10:59,06001,Surinameplein,4.85252231,52.35807034,33.0
1218,2022-10-17,10:00 - 10:59,06002,Surinameplein,4.85090753,52.35807202,18.0
1219,2022-10-17,10:00 - 10:59,06015,Postjesweg,4.85316124,52.36352879,11.0
1220,2022-10-17,10:00 - 10:59,06023,Bilderdijkstraat,4.87254032,52.36736251,26.0
1221,2022-10-17,10:00 - 10:59,06024,Kinkerstraat,4.87230885,52.36706491,54.0
1222,2022-10-17,10:00 - 10:59,06025,Kinkerstraat,4.87201094,52.36743211,69.0
1223,2022-10-17,10:00 - 10:59,06027,Elandsgracht,4.87855189,52.36808953,28.0
1224,2022-10-17,10:00 - 10:59,06028,Elandsgracht,4.87741694,52.36974738,26.0
1225,2022-10-17,10:00 - 10:59,06029,Elandsgracht,4.87684368,52.36852258,10.0
1226,2022-10-17,10:00 - 10:59,06030,Rozengracht,4.87590932,52.37187996,34.0
1227,2022-10-17,10:00 - 10:59,06034,Bilderdijkstraat,4.87082347,52.37105798,19.0
1228,2022-10-17,10:00 - 10:59,06037,Bilderdijkstraat,4.86985701,52.37082906,24.0
1229,2022-10-17,10:00 - 10:59,06038,De Clercqstraat,4.87040279,52.37061574,18.0
1230,2022-10-17,10:00 - 10:59,06043,Overtoom,4.87510145,52.36299659,32.0
1231,2022-10-17,10:00 - 10:59,06044,Overtoom,4.87483191,52.3634538,13.0
1232,2022-10-17,10:00 - 10:59,06045,1e Con. Huygensstraat,4.87399228,52.36242556,30.0
1233,2022-10-17,10:00 - 10:59,06046,1e Con. Huygensstraat,4.87487082,52.36262709,43.0
1234,2022-10-17,10:00 - 10:59,06048,J.P. Heijestraat,4.86585368,52.36037674,34.0
1235,2022-10-17,10:00 - 10:59,06049,J.P. Heijestraat,4.86671778,52.36055131,25.0
1236,2022-10-17,10:00 - 10:59,06053,Rijksmuseum,4.88762091,52.36071327,88.0
1237,2022-10-17,10:00 - 10:59,06054,Rijksmuseum,4.88691223,52.36106979,147.0
1238,2022-10-17,10:00 - 10:59,06061,Leidseplein,4.88339576,52.36305015,130.0
1239,2022-10-17,10:00 - 10:59,06063,Leidseplein,4.88064547,52.36476406,158.0
1240,2022-10-17,10:00 - 10:59,06067,Leidseplein,4.88301434,52.3643158,34.0
1241,2022-10-17,10:00 - 10:59,06071,Prinsengracht,4.88464985,52.3650957,10.0
1242,2022-10-17,10:00 - 10:59,06072,Prinsengracht,4.88428435,52.36495933,28.0
1243,2022-10-17,10:00 - 10:59,06073,Keizersgracht,4.88666521,52.36604795,20.0
1244,2022-10-17,10:00 - 10:59,06074,Keizersgracht,4.88624128,52.36588437,16.0
1245,2022-10-17,10:00 - 10:59,06081,Rhijnvis Feithstraat,4.86039355,52.35905833,23.0
1246,2022-10-17,10:00 - 10:59,06082,Rhijnvis Feithstraat,4.85967683,52.35883943,17.0
1247,2022-10-17,10:00 - 10:59,06089,Leidseplein,4.88085541,52.36309324,220.0
1248,2022-10-17,10:00 - 10:59,06115,Postjesweg,4.85319014,52.3647872,20.0
1249,2022-10-17,10:00 - 10:59,07000,Concertgebouw,4.87980116,52.35642881,32.0
1250,2022-10-17,10:00 - 10:59,07001,Concertgebouw,4.87950215,52.35690388,169.0
1251,2022-10-17,10:00 - 10:59,07002,Van Baerlestraat,4.87836936,52.35839997,17.0
1252,2022-10-17,10:00 - 10:59,07003,Van Baerlestraat,4.87808541,52.35883915,13.0
1253,2022-10-17,10:00 - 10:59,07004,De Boelelaan/VU,4.86582598,52.33524681,52.0
1254,2022-10-17,10:00 - 10:59,07015,Roelof Hartplein,4.88206971,52.353149,12.0
1255,2022-10-17,10:00 - 10:59,07016,Roelof Hartplein,4.88286688,52.35274795,19.0
1256,2022-10-17,10:00 - 10:59,07017,Roelof Hartplein,4.88206087,52.35263666,13.0
1257,2022-10-17,10:00 - 10:59,07035,Zeilstraat,4.85672894,52.35124059,32.0
1258,2022-10-17,10:00 - 10:59,07046,Hoofddorpplein,4.85048172,52.35201234,11.0
1259,2022-10-17,10:00 - 10:59,07049,Hoofddorpplein,4.84958188,52.35117239,21.0
1260,2022-10-17,10:00 - 10:59,07066,Valeriusplein,4.86470709,52.35177939,17.0
1261,2022-10-17,10:00 - 10:59,07069,Emmastraat,4.8696689,52.3529696,9.0
1262,2022-10-17,10:00 - 10:59,07070,Emmastraat,4.87013616,52.35317836,21.0
1263,2022-10-17,10:00 - 10:59,07083,Gerrit v.d. Veenstraat,4.87735929,52.34921014,9.0
1264,2022-10-17,10:00 - 10:59,07084,Gerrit v.d. Veenstraat,4.87720177,52.34886793,19.0
1265,2022-10-17,10:00 - 10:59,07097,Olympiaplein,4.86582821,52.3463018,21.0
1266,2022-10-17,10:00 - 10:59,07098,Olympiaplein,4.86659057,52.34636807,11.0
1267,2022-10-17,10:00 - 10:59,07108,Olympiaweg,4.8587373,52.34528169,9.0
1268,2022-10-17,10:00 - 10:59,07120,Olympiaweg,4.8583413,52.34526195,11.0
1269,2022-10-17,10:00 - 10:59,07132,De Boelelaan,4.86620891,52.33512267,10.0
1270,2022-10-17,10:00 - 10:59,07133,De Boelelaan,4.86754589,52.33496677,47.0
1271,2022-10-17,10:00 - 10:59,07193,Station Zuid,4.87250968,52.34089344,25.0
1272,2022-10-17,10:00 - 10:59,07266,Station Zuid,4.87252654,52.34070477,25.0
1273,2022-10-17,10:00 - 10:59,07268,Station Zuid,4.87416869,52.34081975,28.0
1274,2022-10-17,10:00 - 10:59,07269,Station Zuid,4.8732882,52.34082492,57.0
1275,2022-10-17,10:00 - 10:59,07270,Parnassusweg,4.86874218,52.33806382,17.0
1276,2022-10-17,10:00 - 10:59,07271,Parnassusweg,4.86866745,52.33818033,19.0
1277,2022-10-17,10:00 - 10:59,07294,Station Zuid,4.87377387,52.3407012,34.0
1278,2022-10-17,10:00 - 10:59,07303,VU medisch centrum,4.86097062,52.33515342,85.0
1279,2022-10-17,10:00 - 10:59,07325,Museumplein,4.88046549,52.3586696,252.0
1280,2022-10-17,10:00 - 10:59,07326,Museumplein,4.88178292,52.3589988,77.0
1281,2022-10-17,10:00 - 10:59,07391,Kronenburg,4.87070592,52.31556694,9.0
1282,2022-10-17,10:00 - 10:59,07419,Van Boshuizenstraat,4.86896941,52.32487971,13.0
1283,2022-10-17,10:00 - 10:59,07423,Uilenstede,4.86910951,52.32167168,19.0
1284,2022-10-17,10:00 - 10:59,07439,Oranjebaan,4.87179001,52.30302465,9.0
1285,2022-10-17,10:00 - 10:59,07445,Amstelveen Stadshart,4.86751502,52.30124433,34.0
1286,2022-10-17,10:00 - 10:59,07448,A.J. Ernststraat,4.86887597,52.33288743,69.0
1287,2022-10-17,10:00 - 10:59,07449,A.J. Ernststraat,4.86879476,52.33230287,66.0
1288,2022-10-17,10:00 - 10:59,08007,Bob Haarmslaan,4.96921237,52.36876786,13.0
1289,2022-10-17,10:00 - 10:59,08013,Azartplein,4.93734445,52.37656023,16.0
1290,2022-10-17,10:00 - 10:59,08016,Wittenburgergracht,4.919694,52.36942754,11.0
1291,2022-10-17,10:00 - 10:59,08027,Kadijksplein,4.91357159,52.37075136,47.0
1292,2022-10-17,10:00 - 10:59,08028,Kadijksplein,4.91327534,52.37099284,17.0
